Title,Price,Number of Bedrooms,Number of Bathrooms,Property Type,Floor Area (m2),BER Rating,Latitude,Longitude,Listing Views,Area,County,Features,Date of Construction,Price_per_m2,PriceCategory,PriceCategoryEncoded
"Grey's Corner, Ferrybank, Co. Wexford, Y35XNP4",895000,5,2,0,265.0,5,52.3486,-6.456929,14011.0,ferrybank-wexford,2,"Overlooking the River Slaney Estuary & Wexford town.  , Built in 2007 , Extending to c. 265 sq.m. / 2,853 sq.ft. , 5 bedrooms, 2 bathrooms., Private & sheltered patio facing the river estuary view.",2007.0,3377.3584905660377,High,0
"Ballard, Barna, Co. Galway, H91P22T",1250000,4,4,0,333.0,10,53.257378,-9.134137,19535.0,barna-galway,3,Unknown,1978.0,3753.7537537537537,High,0
"11 Birchfield Lawn, Dublin 14, Kilmacud, Co. Dublin, D14R6C5",595000,4,1,4,93.0,9,53.291674,-6.23159,4565.0,kilmacud-dublin,0,"Four bed home in a prime location - 93sqms / 1000 sq. ft., Off street parking, Superb local schools, Gas fired central heating., Enjoy access to local amenities parks, and public transport., All fitted carpets, curtains, light fittings, and kitchen appliances are included., Quiet yet highly convenient location",1983.0,6397.8494623655915,Medium-High,1
"41 Monaleen Heights, Castletroy, Limerick City, Co. Limerick, V94TFT6",565000,4,3,0,178.0,5,52.662889,-8.554347,2309.0,limerick-city,12,"Turnkey Four Bedroom Detached Property, High BER Rating & Solar Panels Installed, 3 x Wood Burning Stoves, Burglar Alarm & Wired For Broadband, Attic Floored For Storage, Nest Thermostat Installed, Filtered Water In Kitchen, Iron Gates On Either Side Of The Property, Steel 3mx3m Shed With Concrete Floor & Non-Drip Interior Lining & Insulated Roof, Astroturf Low Maintenance Rear Garden ",1980.0,3174.1573033707864,Medium-High,1
"48 Elderwood Park, Boreenmanna Road, Ballintemple, Co. Cork, T12E621",295000,2,2,8,88.0,7,51.892087,-8.441552,2489.0,ballintemple-cork,1,"3rd Floor Two Bedroomed Apartment, Great Location, close to Douglas, Cork City and link road networks, Gas central heating, Underground park space and outside visitor spaces, Lift access",2006.0,3352.2727272727275,Medium-Low,3
"80 Ramleh Park, Milltown, Dublin 6, D06C8Y1",1100000,4,2,4,120.0,9,53.313596,-6.24466,4085.0,milltown-dublin,0,"Secluded South East Facing Rear Garden, Walking distance to Milltown Luas, village and Golf Club, Close to UCD Belfield and the Dodder Park Trail River Walks, Gas Fired Central Heating, Double Glazed Windows",1930.0,9166.666666666666,High,0
"8 Oak View, Ballacollig, Mountmellick, Co. Laois, R32Y227",230000,3,3,4,117.0,8,53.120993,-7.315643,2966.0,mountmellick-laois,19,"Double drive to front, Overlooking green to front, Double glazed windows, Concrete patio to rear, Sunny South facing garden, Attic converted – suit as home office / Storage",2006.0,1965.8119658119658,Low,4
"FORTH MOUNTAIN STUD, The Cools, Barntown, Co. Wexford, Y35YP57",1400000,4,5,0,310.0,7,52.315785,-6.582969,3559.0,barntown-wexford,2,"71 acres of lush green farmland., 31 spacious stables, lunging & all weather jumping arena also cross country., Spacious car park for lorries & horse boxes., Large indoor riding arena (7 span) and 2 fully equipped tack rooms., Residence is very tastefully decorated and presented., Conveniently located only a five minute drive to the N11/N25 & just a 10km to Wexford town., Fantastic opportunity Not to be Missed.",2003.0,4516.129032258064,High,0
"85 Westbrook, Ballymoneen Road, Knocknacarra, Co. Galway, H91DCR9",585000,4,3,0,150.0,7,53.261893,-9.121493,2280.0,knocknacarra-galway,3,"Large detached residence, Good condition, Off-street parking, Popular residential location, Cul-de-sac setting, Well serviced for local amenities",1993.0,3900.0,Medium-High,1
"209a Windmill Road, Crumlin, Dublin 12, D12Y3C7",450000,3,2,0,85.0,8,53.321495,-6.314768,2741.0,crumlin-dublin,0,"Modern Detached property, Modern kitchen recently installed, Extra insulation fitted, Gas fired central heating, Three bedrooms, DG PVC Windows, Large back garden, Close to City Centre",2005.0,5294.117647058823,Medium,2
"12 Cashelmara, Knocknacarra, Co. Galway, H91NDE0",875000,5,5,0,237.0,5,53.260346,-9.10691,4979.0,knocknacarra-galway,3,"Exceptional detached residence, Turn-key condition, B3 rating, Abundance of accommodation & reception spaces, Plentiful off-street parking, Sought after residentila location, Elevated position with rear views of Rusheen Bay, Well serviced for local amenities & public transport, Close proximity to popular outdoor landmarks, Walking distance to Salthill Promenade & Blackrock Diving Tower",1994.0,3691.9831223628694,High,0
"8 Sunnyside, Ballypatrick, Ballypatrick, Co. Tipperary, E91W9P8",440000,6,4,0,224.0,5,52.390385,-7.5422,2179.0,ballypatrick-tipperary,13,"Double glazed windows, Oil fired central heating & Solid fuel stove, 6 Bedrooms & 4 Bathrooms, Built 2007, Mains Water",2006.0,1964.2857142857142,Medium,2
"Misty Moorings, Cappagh, Kinsale, Co. Cork, P17HW73",1600000,5,4,0,185.0,7,51.701195,-8.544927,7871.0,kinsale-cork,1,"Beautiful Four Bed Detached Home, Approx. 185 sq m / 1,989 sq ft, Site Approx. 0.43 Ha / 1.08 acres, Private mooring, River &amp; harbour views, Planning obtained to join house to apartment, Detached one bed apartment (Approx. 48 sq m/527 sq ft), Separate studio space (Approx. 35 sq m/380 sq ft), Private deck &amp; Infinity Pool, GFCH/OFCH/CCTV",1990.0,8648.648648648648,High,0
"Dundela House, Golf Links Road, Castletroy, Co. Limerick, V94W0YF",850000,4,4,0,407.0,7,52.656179,-8.566663,5796.0,castletroy-limerick,12,"Ample Gated Parking On Site, Close to excellent Primary & Secondary Schools, Tastefully presented interior, Close to Main National Road Network, Close To University Of Limerick, Popular Residential Location",1978.0,2088.4520884520884,High,0
"Knockgraffon, Cahir, New Inn, Co. Tipperary, E21NX57",150000,3,2,0,111.0,13,52.420738,-7.922074,8866.0,new-inn-tipperary,13,Unknown,1900.0,1351.3513513513512,Low,4
"2 Merchants Quay, Merchants Road, City Centre, Galway City, Co. Galway, H91CC83",325000,2,2,8,68.0,9,53.270779,-9.05254,3352.0,galway-city,3,"Ground floor & first floor duplex apartment, Well proportioned accommodation, Good condition, Excellent outside space included, City Centre location, Secured complex, Around the corner from Latin Quarter & Spanish Arch, Close proximtiy to Eyre Square, Walking distance to Galway University, Well serviced for amenities expected from city living",1990.0,4779.411764705882,Medium-Low,3
"Townparks, Castledermot, Castledermot, Co. Kildare, R14WD62",435000,3,2,0,129.0,5,52.90394,-6.835962,7954.0,castledermot-kildare,7,"Very good condition throughout, Private site with circa 1 acre, PVC double glazed windows, Within Walking distance to Castledermot and close to transport links , Energy efficient property ",1988.0,3372.093023255814,Medium,2
"Kiljames House On Circa 10.91 Acres, Kiljames Lower, Thomastown, Co Kilkenny, R95DH36",1350000,5,8,0,529.0,4,52.537733,-7.10486,31089.0,thomastown-kilkenny,15,"Executive countryside residence on circa 10.91 Acres, Impressive and spacious light filled accommodation extending to 5,612 Sq. Ft. / 529 Sq. M. approx over three levels, Detached garage extending to circa 1,600 Sq. Ft. / 148 Sq. M. approx., Oil Fired and Geothermal Heating, Underfloor heating in the House and Garage, Internal Vacuum System, Waste Treatment System, Alarm fitted, Double Glazed Sash Windows, Thomas Anderson remote blinds fitted in the Sun Room and the Entrance Hall windows",2006.0,2551.9848771266543,High,0
"32 Cartur Mor, Clybaun Road, H91TFY7",400000,4,3,4,108.0,9,53.275508,-9.104506,2545.0,knocknacarra-galway,3,"Four bed semi detached home, Popular residential location, Spacious semi-detached property, Oil Fired eating & double glazed windows, Large attic space suitable for conversion, Tarmacadam driveway with parking, Well serviced by local amenities, Minutes from several shops & schools, Quality transport links to & from Galway City, Easy access to UCHG & University of Galway",2001.0,3703.703703703704,Medium,2
"Lisnagar Demesne, Rathcormac, Co. Cork, P61DA00",1700000,5,7,0,469.0,6,52.075556,-8.298872,7779.0,rathcormac-cork,1,"Total land holding of approx. 10.45 Ha. (25.83 acres) to include 9.92 Ha. (24.51 acres) of arable land , Detached home of approx. 468.83 Sq. M. / 5,046 Sq. Ft., BER C1, Built in 1996, Access via a beautiful tree lined drive-way, Fully automated security gates / Full CCTV system / Commercially alarmed - intruder & fire, Stud railing, Single & three phase power / Back-up generator power supply, Private water supply / Drainage to septic tank / Pumped showers, Internet access",1966.0,3624.7334754797444,High,0
"8 Oblate Drive, Inchicore, Dublin 8, D08V6FV",325000,2,1,3,48.0,10,53.336208,-6.32927,14435.0,inchicore-dublin,0,"Year of construction 1910, Recently refurbished, Red brick facade, End of terrace, Sash windows, Ample storage, Block shed, Engineered oak flooring, Fully integrated kitchen, High spec finish",1920.0,6770.833333333333,Medium-Low,3
"23 Pine Road, The Woodlands, Portlaw, Co. Waterford, X91CHK3",360000,3,2,0,227.0,5,52.292848,-7.319326,3570.0,portlaw-waterford,14,"Prime Location , PVC Double Glazing, Rear Enclosed Garden , Double Glazing , Patio Doors, Sunroom , Oil Fired Central Heating",2005.0,1585.9030837004404,Medium,2
"115 Carrigweir, Tuam, Tuam, Co. Galway, H54YA24",375000,4,4,0,152.0,5,53.51468,-8.862157,3068.0,tuam-galway,3,"Impeccably Presented Turnkey Residence , Spacious Accommodation , Highly Energy Efficient, Wonderfully Located, 30 Minutes from Galway City, Walking Distance to Tuam Town, High Speed Broadband Available , Three Floors of Accommodation, Move-in Ready, Exceptional Value for Money",2006.0,2467.1052631578946,Medium,2
"8 Wyse's Cottages, Blarney Street, Sunday's Well, Co. Cork, T23F8N8",275000,2,1,3,74.0,6,51.901305,-8.489715,63012.0,sunday-s-well-cork,1,"Fully upgraded throughout, New Gas Zoned Central Heating , Short Walk to Sundays Well, Close to Cork City, Ideal investment Property - no rental history , Private South Facing garden to the front, Cul De Sac, New PVC Double Glazed Windows, Newly wired throughout, Close to UCC",1900.0,3716.2162162162163,Medium-Low,3
"25 The Hibernian, The Gasworks, South Lotts Road, Dublin 4, D04P6K2",395000,1,1,8,54.0,5,53.338922,-6.235775,5904.0,dublin-4-dublin,0,Unknown,2003.0,7314.814814814815,Medium,2
"21 The Granary, Abbeyknockmoy, Monivea, Co. Galway, H54XN47",330000,4,3,4,124.0,7,53.436233,-8.747767,1923.0,monivea-galway,3,"Spacious Family Residence, Not Overlooked to the Front or Back, Located in the Heart of Abbeyknockmoy Village, 5 Minute Drive to the Motorway, less than 30 Minutes to Galway City",2007.0,2661.2903225806454,Medium-Low,3
"27 Rocklands Avenue, Ballybane, Galway City, Co. Galway, H91KWP8",330000,4,2,4,123.0,9,53.285656,-9.010163,4560.0,galway-city,3,"Large corner site, FOLIO GY5318F, Spacious 3 bedroom detached home, Generous front and rear gardens, Walking distance to schools, shops & ATU College, Well serviced by local amenities & sports facilities, Daily bus service to & from Galway city located nearby, Easy access to Galway City, M6 motorway & Oranmore, Moments of Galway Clinic & Merlin Park Hospital, Close to Boston Scientific, Merit Medical & Creganna",1978.0,2682.9268292682927,Medium-Low,3
"Rossaveel Upper, Ballynahown, Co. Galway, H91WP9C",475000,5,4,0,215.0,3,53.27482,-9.549256,8672.0,ballynahown-galway,3,Unknown,2009.0,2209.3023255813955,Medium-High,1
"10 Stillorgan Gate, Kilmacud Road Upper, Kilmacud, Co. Dublin, D14RX06",1250000,4,3,5,192.0,1,53.285806,-6.224107,7816.0,kilmacud-dublin,0,Unknown,2018.0,6510.416666666667,High,0
"248 Laraghcon, Lucan, Co. Dublin, K78HN72",535000,4,3,3,140.0,5,53.36459,-6.447448,8968.0,lucan-dublin,0,Unknown,2005.0,3821.4285714285716,Medium-High,1
"Hilltop, Tumnahulla, Corrandulla, Co. Galway, H91A6FT",420000,3,2,0,110.0,8,53.402679,-8.970187,3481.0,corrandulla-galway,3,"Oil fired central heating., Water is Galway County Council supply with a septic tank onsite., Elevated site hence house name ""Hilltop"", No houses either side of house., High level of insulation throughout house with pumped cavity walls and attic insulation., Tar-mac drive, footpaths, patio., High speed broadband available., Mature fruit trees in rear garden., Double glazing throughout house., Fully tiled bathroom and en-suite with electric and power shower.",1970.0,3818.181818181818,Medium,2
"Cloghbrack Upper, Cloghbrack, Clonbur, Co. Galway, F12VF98",190000,4,1,6,112.0,10,53.554433,-9.457565,5769.0,clonbur-galway,3,"Scenic Location, Charming traditional features, Recently re-roofer and insultated, Accessibility friendly modifications",1956.0,1696.4285714285713,Low,4
"Moyveela, Oranmore, Co. Galway, H91RXA3",350000,3,1,6,114.0,10,53.271381,-8.840071,3715.0,oranmore-galway,3,"Site of 0.4 acre approx., Spacious 3 bed detached home, Built c.1966, Generous gardens to front and rear",1966.0,3070.1754385964914,Medium,2
"Boleybeg East, Barna, H91K230",695000,5,3,0,214.0,7,53.284024,-9.13459,8615.0,barna-galway,3,"Built Circa 2004, Spacious detached c 215 sqm, Mature private landscaped site, Rural setting closed to Galway City, Walking distance to Drom playing fields, Easy access to UCHG & University of Galway, Several schools, shops & parks in the area, Substantial gardens front, side & rear",2003.0,3247.663551401869,High,0
"94 Old Cabra Road, Dublin 7, Navan Road (D7), Dublin 7, D07F2P7",1250000,3,3,4,170.0,6,53.360274,-6.294232,9044.0,navan-road-d7-dublin,0,"Turnkey condition, Modern finish throughout, Large rear garden, Excellent location., Space for 3 cars for off street parking, Electric gate & state of the art security system installed, renovated to a very high standard throughout, Floored attic space for extra storage, Large attic",1928.0,7352.941176470588,High,0
"22 Patrick Street, Dun Laoghaire, Co. Dublin, A96CF51",495000,2,1,5,68.0,10,53.291274,-6.137658,8729.0,dun-laoghaire-dublin,0,"Charming two-bedroom mid-terrace period home in a highly convenient location, West facing rear courtyard, Gas fired central heating, Fantastic location in the heart of Dun Laoghaire, Excellent transport links including DART several bus routes (QBC) Aircoach M50 and N11, On street permit parking, BER D2",1905.0,7279.411764705882,Medium-High,1
"16 The Waterfront, Bridge Street, Galway City Centre, H91K6K7",475000,3,2,8,88.0,7,53.271658,-9.055406,9297.0,Unknown,11,"Spacious upper floor apartment, Excellent condition, Abundance of accommodation, Security doors & lift access, City Centre location, Corner balcony with River outlook, City living at its finest, Walking distance to Galway University",1994.0,5397.727272727273,Medium-High,1
"Cloverhill, Sligo, Co. Sligo, F91H5V2",645000,5,3,0,211.0,4,54.23816,-8.514905,10317.0,sligo-sligo,17,"uPVC Double Glazed Windows & Doors, Solid Oak Doors & Stairs, BEAM Vacuum System, Enjoys 1GB Fibre Broadband, Stands on c. 0.84 acres with large Detached Garage, Ample Parking to Front Side & Rear, Mature Landscaped Gardens Surround, Scenic & Quiet Residential Area, Oil Fired Central Heating Solid Fuel Burning Stove & Raised Gas Fire, Alarmed",2006.0,3056.872037914692,High,0
"Aille, Barna, Co. Galway, H91P58F",600000,4,2,0,184.0,9,53.265412,-9.145455,8278.0,barna-galway,3,"Large detached residence, Spacious site of approximately 0.76 acres, Manicured green & private surroundings, Thoughtfully postioned outdoor patios, Sought after southerly aspect, Abundance of accommodation & reception spaces, Plentiful natural light, Popular residential area, Close proximity to Barna Village, Well serviced for nearby amenities in Barna & Knocknacarra",1978.0,3260.8695652173915,Medium-High,1
"Lower Ballygarvan, Ballygarvan, Co. Cork, T12AH31",625000,4,3,0,177.0,5,51.820432,-8.479628,12194.0,ballygarvan-cork,1,"Beautiful Detached on a wonderful setting, Standing on 1.2acres of mature gardens, 4 Double bedrooms, Detached Concrete built Garage, Spacious parking area, PVC Double Glazed Windows, Close to Cork Airport, CUH, Ringaskiddy, Kinsale, Oil Central Heating, 10mins from Carrigaline, South Facing",1991.0,3531.0734463276835,Medium-High,1
"98 Tudor Grove, Ashbourne, Ashbourne, Co. Meath, A84E671",495000,4,3,0,165.0,7,53.516048,-6.403225,3789.0,ashbourne-meath,10,"Spacious Four Bedroom Residence , Beautiful Light Filled Extension, Close to all Amenities",1991.0,3000.0,Medium-High,1
"Cleadagh Cottage, Cleadagh, Spanish Point, Co. Clare, V95CX26",625000,3,2,0,130.0,13,52.859091,-9.429988,12453.0,spanish-point-clare,8,"Stunning sea views, Prime location within a short distance of Spanish Point, Selection of beaches, restaurants, cafes, hotels, golf course, etc in close proximity , Large site (5.14 acres) with direct access onto the coastline, Adjoining garage and spacious 61 sq. metre studio and mezzanine area with potential for multiple use, Eircode V95 CX26, Folio No: CE28119 and CE43390F",1968.0,4807.692307692308,Medium-High,1
"Dunamaise, Johnduffswood, Oldleighlin, Co. Carlow, R93WF10",425000,4,4,0,192.0,5,52.751005,-7.023952,13383.0,oldleighlin-carlow,22,Unknown,2009.0,2213.5416666666665,Medium,2
"Apartment 1, Kingston House, Barna Road, Kingston, Co. Galway, H91RK46",350000,3,2,8,74.0,7,53.260404,-9.120607,4911.0,kingston-galway,3,"Three bed ground floor apartment, Popular location on main Barna Road, Small development of 4 apartments, Ample parking - Bike & Bin storage to rear, Management Fee circa &#x20AC;1855 pa, Feature wooden flooring - Master bedroom en suite, Electric storage heaters & double glazing, Close to Barna Woods, Cappagh Park & Rusheen Bay, Easy access to Galway City, UCHG & University of Galway, Moments from Tesco , Aldi and Knocknacarra Retail Park",2008.0,4729.72972972973,Medium,2
"2 Costello Road, H91HP6W",235000,2,1,5,66.0,14,53.275526,-9.069846,7292.0,shantalla-galway,3,"Built c. mid 1940's, Solid fuel central heating, Front and rear gardens, On street parking, Close to University and hospital., Vacant prior to Covid 19 pandemic lockdown., Should qualify for Vacant Property Refurbishment Grant.",1950.0,3560.6060606060605,Low,4
"148 Clochrn, Kilcloghans, Tuam, Co. Galway, H54D762",315000,4,3,4,113.0,6,53.529453,-8.857084,5912.0,tuam-galway,3,"Delighfuly Presented, Fully Upgraded, Beautifully Designed Back Garden, Premium Kitchen, Spacious Interior, Wonderful Location, Adjacent to Motorway Connection, 30 Minutes from Galway City, Turnkey Condition ",2005.0,2787.6106194690265,Medium-Low,3
"18 Saint Endas Avenue, Tuam, Tuam, Co. Galway, H54WR65",150000,3,1,4,80.0,11,53.509712,-8.856419,3942.0,tuam-galway,3,"Qualifies for Substantial Grants of up to 70,000 Euro, Centrally Located, Great value Home, Just a Short Stroll to Tuam Town Centre, 30 Minutes to Galway City, 2 Minutes to the Motorway, High Speed Broadband Available , Excellent Potential ",1950.0,1875.0,Low,4
"10 Inis Alainn, Fiddown, Co. Kilkenny, E32WD30",240000,3,3,0,94.0,7,52.332553,-7.316668,6077.0,fiddown-kilkenny,15,"Oil fired central heating, Two garden sheds, Solar panels, Immaculate condition, Small private estate",2007.0,2553.191489361702,Low,4
"73 Woodfield, Cappagh Road, Knocknacarra, Co. Galway, H91WDN0",380000,4,2,3,115.0,9,53.261484,-9.12626,2472.0,knocknacarra-galway,3,"4 bed end of terrace over 3 storeys, No management fees, OFCH & double glazed windows, Ample off street parking to front, Communal rear garden with access to shed, Overlooks a large green area to front, Close to several schools, restaurants & retail parks, Excellent bus service to & from Galway City, Easy access to Galway City, Salthill & Barna, Minutes from Barna Woods, Cappagh Pk & Rusheen Bay",1995.0,3304.3478260869565,Medium,2
"70 The Green, College Road, Galway City Centre, H91XTY4",450000,4,3,4,115.0,6,53.278115,-9.040864,6927.0,Unknown,11,"Exceptionally Well Located , Spacious Accommodation , Move-In Ready, Owner Occupied , Never Rented",1990.0,3913.0434782608695,Medium,2
"Montpelier, 64 Orwell Park, Rathgar, Dublin 6, D06X4E6",3750000,6,3,0,352.0,12,53.307039,-6.267568,11802.0,rathgar-dublin,0,Unknown,1860.0,10653.40909090909,High,0
"Stonebridge Farmhouse, Ahacross, Kildorrery, Co. Cork, P67R963",410000,4,3,0,229.0,4,52.257955,-8.385395,34620.0,kildorrery-cork,1,"Large site with tarmacadam driveway, Turn-key property, B2 Energy Rating/Solar panells, Pressurized water system, OFCH, Electric gates, Block Built Shed, 5 minute commute from Kildorrery village, 10 minute commute from Mitchelstown and the M8 motorway., 35 minute commute to the Jack Lynch Tunnell",2007.0,1790.3930131004367,Medium,2
"Gardenfield, H54A990",290000,3,1,0,84.0,13,53.540699,-8.871709,23841.0,tuam-galway,3,"Gardenfield- much sought after address, Potential to extend, Two minutes drive to Tuam bypass and motorway, Renovated home presented in turnkey condition, New double glazed uPVC windows, New oil fired central heating boiler, Renovated bathroom, Outbuilding / Garage / shed to include 3 no. stables., High speed broadband available, Scenic location",1956.0,3452.3809523809523,Medium-Low,3
"16 Renmore Road, Renmore, Co. Galway, H91XVX4",475000,3,2,8,149.0,6,53.277395,-9.023529,3447.0,renmore-galway,3,"RETAIL UNIT - D2 - 801026220 - 527.72 kWh/m2/yr., 57 sq.m. (613.55 sq.ft.) approx., APARTMENT - C1 - 104129952 - 171.32 kWh/mÂ²/yr., 92.34sq.m. (993 sqft.) approx., Rewired and new heating condenser boiler., Apartment was registered with RTB., Vacant since January 2024., You Must Pre-Register on Our Website - With Bidder Security Fee Paid By - 5TH DECEMBER 2024.",1968.0,3187.9194630872485,Medium-High,1
"Glenlucan Lodge, Glenlucan Court, Killarney Road, Bray, Co. Wicklow, A98E9X2",1100000,4,5,0,226.0,1,53.198827,-6.119561,6466.0,bray-wicklow,4,"Totally private.Not visible from the street, Pretty fairy tale well, Open-plan reception rooms ideal for entertaining, Home office plus four large ensuite bedrooms, Underfloor heating throughout on both floors, Solid Oak internal doors and staircase, Fibre broadband plus Satellite dish with octo LMB to all rooms, Electric car charging point, Electric gates, A2 BER rating",2018.0,4867.256637168141,High,0
"Bealach Ceart, 3 Seapoint, Barna, Co. Galway, H91Y8HF",595000,4,3,0,141.0,2,53.250955,-9.152711,6057.0,barna-galway,3,"Modern 4 bed detached home, Located in the heart of Barna Village, Presented in showhouse condition, Excellent A3 energy rating, Modern design and functionality throughout, Air-to-water heat pump & central heating system, South facing aspect to rear garden, Three parking spaces in adjacent development, Excellent local amenities within walking distance, Easy access to Galway City, Furbo, Spiddal & Connemara",2002.0,4219.858156028369,Medium-High,1
"33 Loch Eala, Lough Gowna, Co. Cavan, H12X389",495000,4,5,0,221.0,6,53.870792,-7.529761,18028.0,lough-gowna-cavan,20,"BER A2, Stunning location beside Loch Eala, Interior design by Bree Hamilton, Four en-suite bedrooms, Detached home office in back garden, Cobblelock to front and back of property",2006.0,2239.819004524887,Medium-High,1
"15 Greystones, Blackstone Bridge, Killeens, Co. Cork, T23V068",475000,5,3,0,204.0,4,51.919988,-8.504007,8724.0,killeens-cork,1,"Spacious Detached Home , Outdoor dining area to the side , Spacious driveway , B2 Energy Rating , PVC Double Glazed Windows , Oil Central Heating , Detached concrete built garage to the side , 2 Ensuites , Close to Cork City Centre ",2005.0,2328.4313725490197,Medium-High,1
"11 Crannagh Way, Rathfarnham, Churchtown, Dublin 14, D14P9P5",1050000,4,3,0,205.0,6,53.301224,-6.27586,8456.0,churchtown-dublin,0,Unknown,1997.0,5121.951219512195,High,0
"13 Deerpark Road, Castleknock, Dublin 15, D15X86P",1675000,5,2,0,190.0,7,53.372312,-6.351842,7396.0,castleknock-dublin,0,5 Bedroom detached family home on large grounds ,1970.0,8815.78947368421,High,0
"Kilshanny, Island Lane, Ballinakill, Waterford, X91K6VH",800000,6,4,7,274.0,7,52.245859,-7.063573,10997.0,knockboy-waterford,14,"6 Bedrooms, Entrance Hall, Dining Area, Living Room, Kitchen/Diner, Utility Room, Conservatory, Office, Main Bathroom, En-Suite",1978.0,2919.70802919708,High,0
"Currinara, Foxford, Co Mayo, F26E8D5",495000,4,0,0,195.0,8,53.974964,-9.101287,14497.0,foxford-mayo,6,"High quality finish throughout., Thoughtfully landscaped gardens with a rockery to the rear., Built-in Garden BBQ., Waterfall to the rear of the property., Patio to the front., Oil-fired central heating., Off-street parking for a number of cars., Large double garage to the side., Fantastic views all around., Close to Foxford",2000.0,2538.4615384615386,Medium-High,1
"Moorepark House, Moorepark, Garristown, Co. Meath, A42D653",950000,6,3,0,358.0,6,53.588215,-6.408478,22310.0,garristown-meath,10,"Architecturally designed,  stone built, charming country home with spacious and luxury living accommodation., Built 2000 with style, grace, imagination and attention to detail., c.1 acres of mature gardens with a large parking area and sun-trap deck., Tranquil country setting., 10 Minutes from Ashbourne Town and the M2. 2 mins drive from Garristown village., Close to the local shop/ petrol station, country pubs and national schools, coffe shop, library, church and golf clubs etc, c.25 mins drive of Dublin Airport., Oil heating, open fire, septic tank, mains water, Two large attic areas access by fitted stira stairs",2000.0,2653.631284916201,High,0
"19 Doctor Mannix Road, Salthill, Co. Galway, H91W9HE",900000,7,3,4,282.0,9,53.264826,-9.081299,8445.0,salthill-galway,3,"Large semi-detached residence, Double-fronted with abundance of accommodation, Corner site position, Dual access, Spacious private gardens, Popular residential location of Salthill, Easy access to local shops & sporting facilities, Short walk to Salthill Village & Promenade, Close to several Primary & Secondary Schools, Easy accessto Galway University, UCHG & City Centre",1964.0,3191.4893617021276,High,0
"87 Garran Ard, Doughiska, Co. Galway, H91RWE1",380000,5,6,3,139.0,7,53.282566,-8.97726,7261.0,doughiska-galway,3,"Superbly presented 5 bed end of terrace, Popular & sought after residential location, 5 bedrooms all with ensuites & built in wardobes, Private rear garden & parking available to front, Walking distance of Merlin Woods NS & Merlin College, Minutes from Galway Clinic & Merlin Park Hospital, Close to several business parks & shopping areas, Well serviced by local amenities & sports facilities, Daily bus services to & from Galway City located nearby, Easy access to the M6 & M18 motorways and Oranmore",2003.0,2733.8129496402876,Medium,2
"26 The Orchards, Tullow Road, Carlow Town, Co. Carlow, R93FP89",359950,4,2,6,121.0,9,52.828418,-6.903634,5387.0,carlow-town-carlow,22,"Great location & close too many local amenities, Quite neighbourhood/area, Generously proportioned throughout, Enclosed Rear Garden with side entrance, Off Street Parking",1994.0,2974.793388429752,Medium,2
"Apartment 106, Forbes Quay Apartments, Grand Canal Dock, Dublin 2, D02X027",555000,2,2,8,70.0,3,53.345489,-6.239353,12001.0,grand-canal-dock-dublin,0,"Second Floor Apartment, Passenger Lift, Dual aspect balconies, Bicycle Storage, Gas Fired Central Heating,  Comfortable BER Rating,  Landscaped Residents' Courtyard, Riverfront Location, Adjacent Grand Canal Square, Close to Barrow Street and Tara Street DART",2005.0,7928.571428571428,Medium-High,1
"3 Louis Lane, Leinster Road, Rathmines, Dublin 6, D06CD60",1295000,3,2,5,186.0,5,53.324409,-6.269076,22266.0,rathmines-dublin,0,Unknown,1998.0,6962.365591397849,High,0
"Grange, Turloughmore, Co. Galway, H65AK79",365000,4,2,0,121.0,7,53.347267,-8.862659,5217.0,turloughmore-galway,3,"Spacious 4 bed detached bungalow, Popular residential area close to Cregmore, Mature Site 0.37 acres - folio GY14160F, Easy access to Cregmore NS & Golf Club, 8k to villages of Claregalway & Lackagh, Oil Fired Central Heating, Feature Tirolla solid fuel stove, Large gardens front, side and rear, Ample off street paring for multiple cars, Attached garage & 2nd separate garage",1982.0,3016.528925619835,Medium,2
"Cregnanagh, Shrule, Shrule, Co. Mayo, H91A0YD",395000,5,3,0,296.0,5,53.546504,-9.109413,9742.0,shrule-mayo,6,"Stunning Family Residence, Handsomely Upgraded, Contemporary Interiors, Spacious and Modern Open Plan Layout, Exceptionally Spacious, Large Attic Space, 1.5 Acre Site, 30 Minutes from Galway City",2005.0,1334.4594594594594,Medium,2
"32 Abington, Malahide, Malahide, Co. Dublin, K36D998",1950000,6,5,0,386.0,7,53.445966,-6.1818,23486.0,malahide-dublin,0,Unknown,2000.0,5051.813471502591,High,0
"1 Newtown Abbey, Trim, Co. Meath, C15HY98",550000,3,2,0,127.0,10,53.557095,-6.770312,8266.0,trim-meath,10,"Beautifully positioned house on a large, elevated site., Convenient to all amenities., Detached house on a large site., Stunning views of both the River Boyne.",1983.0,4330.708661417323,Medium-High,1
"3 Coolrua Drive, Dublin 9, Beaumont, Dublin 9, D09F978",460000,3,1,4,87.0,11,53.388938,-6.235343,12501.0,beaumont-dublin,0,"Large side garden with development potential, Gas central heating, Feature fireplace, Timber storage shed, Storm porch, South-east facing garden",1950.0,5287.35632183908,Medium-High,1
"1 Garrai Na Droichid, Killora, Craughwell, Co. Galway, H91W9NN",495000,4,3,0,127.0,1,53.226343,-8.737309,6610.0,craughwell-galway,3,"Beautiful 4 bed detached, Constructed in 2021 to a high standard, Minutes from the Village of Craughwell, 24 daily buses to Galway - 20 min drive to Galway City, Exceptional ""A2"" rated Energy Efficient Homes, Gas Central Heating & high efficiency condensing boiler, Mechanical Heat Recovery Ventilation (MHRV) installed, Solar Panel Photovoltaic roof panels, Triple glazed windows & Underfloor heating downstairs, High levels of thermal insulation & air tight construction",2019.0,3897.6377952755906,Medium-High,1
"24 St Ignatius Road, Phibsborough, Dublin 7, D07VR80",445000,2,2,3,96.0,10,53.361799,-6.26255,9426.0,phibsborough-dublin,0,"Two bedroom end of terrace residence, The Royal Canal is behind this property, Prime location close to many amenities, GFCH",1920.0,4635.416666666667,Medium,2
"Rose Mont, Woodbine Park, Blackrock, Co. Dublin, A94A9W6",1295000,5,3,0,171.0,5,53.309654,-6.208595,9448.0,blackrock-dublin,0,"5 bedroom (2 Ensuite), 3 bathrooms + Visitors WC,, Detached, B3 rated home extending to 170 sq.m, Exceptional location within walking distance of UCD and Sandymount Strand, Private sunny rear garden, maintenance free, mature shrubs with water feature., Contemporary Walnut fitted kitchen / Blanco Capri stone countertops., Secure Electronic Automated Gates with generous off-street parking, Bright crema marfil marble tiled floor hall, living, dining area and Kitchen, Large Attic with access via retractable stair unit. Development potential (S.P.P)., Modern, detached family home in walk in condition., Underfloor heating throughout the ground floor. Radiators on the first floor",2007.0,7573.099415204679,High,0
"65 Riasc na Ri, Bothar Stiofan, Rahoon, Co. Galway, H91PNX4",425000,3,3,4,118.0,8,53.275101,-9.099765,7916.0,rahoon-galway,3,"Beautifully Presented Spacious Residence , Freshly Decorated, Newly Fitted Flooring, Converted Attic, New Appliances, Generously Proportioned Rooms, Overlooking Large Green, Prized Location, Turnkey Condition, Exceptional Home",2002.0,3601.6949152542375,Medium,2
"107 Heathervue, Greystones, Co. Wicklow, A63AE35",695000,4,2,0,111.0,5,53.144243,-6.068578,17560.0,greystones-wicklow,4,"B3 BER rating eligible for Green Mortgage , Located in a well-established safe development, Full new plumbing system with new combi boiler , Full re-wire with all LED lights , A-rated triple glazing windows and doors throughout, All new carpets and flooring throughout, Brand new kitchen with Neff and Bosch appliances , 200m from Greystones Main Street / 3 mins walking distance , Within school district for St Bridgets, St Kevins & St Patricks (Primary) & St Davids & Templecarrig (Secondary) , Low-maintenance front and rear garden",1989.0,6261.261261261261,High,0
"1 Galway Bay Sea View Apartments, Upper Salthill, Salthill, Co. Galway, H91W59R",375000,2,2,8,80.0,9,53.258605,-9.078925,10792.0,salthill-galway,3,"Two bed first floor apartment, Only suitable as an Investment Property, Holiday let only - part of pooled rental scheme, Impressibve rental income available on request, Open plan living, dining & kitchen, Two bedrooms, master bed ensuite, Views of the Prom, Galway Bay & the Clare Hills, Secure complex with lift access & parking, Opposite Salthill Promenade & beaches, Easy access to Galway City, UCHG & University of Galway",2000.0,4687.5,Medium,2
"83 Father Griffin Road, Galway, Claddagh, Co. Galway, H91W6YT",325000,2,1,6,50.0,12,53.268314,-9.05805,14263.0,claddagh-galway,3,"Wonderful Location, Massive Potential, Substantial Vacant Home Grant Available , Large Back Garden, Walking Distance to Everywhere in Galway City , Long Established Community , Cherished Neighbourhood , Just A Short Stroll to the Spanish Arch and Everthing this Beautiful City has to Offer",1900.0,6500.0,Medium-Low,3
"36 Newton Court, Grange, Douglas, Co. Cork, T12YNN3",279000,3,1,4,110.0,12,51.865006,-8.452392,19556.0,douglas-cork,1,"South facing rear garden, Gas heating + PVC double glazed windows, Built 1972",1972.0,2536.3636363636365,Medium-Low,3
"Berring's, Berring's, Island Lane, Ballinakill, Waterford City, Co. Waterford, X91YYP8",695000,5,4,0,260.0,7,52.245258,-7.063321,8132.0,waterford-city,14,"Excellent location within a short walk to University Hospital Waterford, South facing rear garden, C2 Energy rating, Upvc double glazing, Upvc facia & soffit., Detached Garage",2000.0,2673.076923076923,High,0
"Grandgate Lodge, Gardenfield, Tuam, Co. Galway, H54Y067",550000,4,3,0,220.0,2,53.533553,-8.870457,35399.0,tuam-galway,3,"Exquisite Site, Private Fishing and Bathing Areas, A Rated Home, Prized Location, Wonderful Community , Stunning Gardens Complete with Herb Gardens and Green Houses, Children's Play Area, Two Minutes from Connection to the Motorway, Walking Distance to Tuam Town 30 Minutes from Galway City, High Speed Broadband Available",2004.0,2500.0,Medium-High,1
"46 Upper Grand Canal Street, Ballsbridge, Dublin 4, D04VX62",1250000,4,3,5,154.0,9,53.337635,-6.23502,15310.0,ballsbridge-dublin,0,"Beautifully presented four bed period home in Dublin 4, Magnificent original period features and detail throughout, Extended and refurbished throughout in recent years, Secluded garden to the rear, Gated off-street parking together with on-street residents` disc parking, Remote controlled Stira stairs to a large floored attic, Adjacent to an enviable choice of restaurants bars coffee and speciality food shops, Within walking distance of the city centre Ballsbridge and Sandymount, Excellent public transport links including the DART closeby",1870.0,8116.883116883117,High,0
"Derrigimlagh, Ballyconneely, Co. Galway, H71FP27",750000,3,4,0,250.0,7,53.436991,-10.076635,13832.0,ballyconneely-galway,3,"3 Bedrooms, Entrance Hall, Living Room, Kitchen/Dining Area, Sunlounge, Utility Room, Guest Wc, En-Suite",2004.0,3000.0,High,0
"Hillcroft, Greens Hill, Kilkenny, Co. Kilkenny, R95YR6E",795000,5,2,0,195.0,8,52.664344,-7.253234,7684.0,kilkenny-kilkenny,15,"THINK LOCATION ON THIS PROPERTY , DOUBLE GLASED PVC DOORS AND WINDOWS  INSTALLED THROUGHOUT , EXCELLENT STORAGE SPACE WITH BESPOKE INTEGRATED FURNITURE THROUGHOUT  , EXECUTIVE STYLE HOME,WITH UNIQUE FEATURES , HIGH DESIRABLE AND ESTABLISHED LOCATION, WALKING DISTANCE TO KILKENNY CITY CENTRE, PROFESSIONALLY DECORATED AND HIGH SPECIFICATION FINISH THROUGHOUT , CLOSE TO CHILDCARE CENTRE'S,AND CHOICE OF BOTH PRIMARY AND SECONDARY SCHOOLS , PRIVATE AND ENCLOSED REAR GARDEN/NOT OVERLOOKED, WITHIN A SHORT DRIVE OF M9 MOTORWAY ACCESS",1968.0,4076.923076923077,High,0
"Glenside House, Maree Road, Renville East, Oranmore, Co. Galway, H91R6F6",1500000,4,6,0,384.0,3,53.250641,-8.940714,12906.0,oranmore-galway,3,"Air-To-Water High Efficiency Geo Thermal Heating System, Hollow core flooring , 9ft6 ceiling height on ground and first floor, Underfloor heating at both ground and first floor, Double glazed PVC sash windows throughout, Zoned heating controls in every individual room, V'Soske Joyce fitted wool carpets, Southerly rear aspect, B1 BER qualifies for Green Mortgage Rates, 4,135 sq.ft Residence with 621 sq.ft Double Garage",2005.0,3906.25,High,0
"27 Hillview, Kilmoney, Carrigaline, Co. Cork, P43E449",585000,4,5,0,225.0,6,51.807447,-8.397171,39021.0,carrigaline-cork,1,"4 Bedrooms - all ensuite, Nice Corner Site, Close to all amenities, Garage with roller door attached, Driveway to the front, Walk in Wardrobe in master Bedroom, Oil Central Heating, C1 Energy Rating, Woodburning Stoves in both living rooms, South Facing Rear Garden",1984.0,2600.0,Medium-High,1
"Glenside House, Renville East, Oranmore, Co. Galway, H91R6F6",1500000,4,6,0,384.0,3,53.250641,-8.940714,9178.0,oranmore-galway,3,"Impressive B1 energy rating, Air to water, geothermal underfloor heating on both ground and first floor, Set on three quarters of an acre of landscaped grounds, Situated less than 2km to Oranmore Village and close to Rinville Park, Sailing Club and Galway Bay Golf Resort, Cavity wall construction, hollow core floor slabs and block walls internally , PVC double glazed sash windows, Split level double garage, Secure site with gated entrance, Superb finish throughout with quality flooring, lighting, tiling, carpets, appliances and external paving. , Ornate architectural and period features",2005.0,3906.25,High,0
"The Anchorage, Colla Road, Schull, Schull, Co. Cork, P81DT86",2400000,5,3,0,334.0,10,51.512782,-9.54341,21394.0,schull-cork,1,Unknown,1900.0,7185.62874251497,High,0
"37 Oaktree Road, Stillorgan, Co. Dublin, A94CX92",795000,3,1,4,101.0,8,53.280717,-6.199264,16013.0,stillorgan-dublin,0,Unknown,1945.0,7871.287128712871,High,0
"26 Marian Park, Ballyheigue, Ballyheigue, Co. Kerry, V92Y9K3",199000,3,1,5,80.0,6,52.392653,-9.845312,14554.0,ballyheigue-kerry,9,"Stunning Sea View, Walk to the Beach, Golf Course and all imaginable amenities, Double Glazed Windows, Marian Park is Well Established and Well Renowned  ",1975.0,2487.5,Low,4
"Apt. 15, Hanover Wharf, Grand Canal Dock, Dublin 2, D02CA43",850000,3,2,8,140.0,4,53.344814,-6.237481,13963.0,grand-canal-dock-dublin,0,"Stunning light filled Penthouse in the heart of Grand Canal Dock, Views of the Grand Canal Basin, Private Parking, Finished to an extremely high standard, Beautiful light and space within the property, Stunning Master Suite, Polish Stone flooring in the main areas, High end solid wooden flooring in the Living & Dining Area, B2 BER, Nestled amongst some of Dublin`s top amenities",2004.0,6071.428571428572,High,0
"Cherry View, Glenabbey Road, Mount Merrion, Co. Dublin, A94C1P8",1295000,4,3,0,173.0,5,53.294009,-6.216541,12268.0,mount-merrion-dublin,0,"4 bedroom (2 Ensuite), 3 bathrooms + Visitors WC, Detached, B3 rated, 173 sq.m (including 2 Attic Rooms)., Overlooking ""The Deerpark"", a 32-acre public park owned and maintained by DLRD County Council. Family-friendly and open 24/7, it provides facilities f, Exceptional, modern, recently refurbished four-bedroom (2 Ensuite) detached family home. Large Attic with 2 separate attic rooms plus ample storage sp, Private south facing maintenance free rear garden. Beautifully landscaped front and rear gardens which are entirely private and secluded with mature s, Set behind secure Electronic Automated Wrought Iron Gates with generous off-street parking, Very high specification finish throughout. Generous, tastefully presented and well-proportioned family accommodation., Refurbished recently - Located in a most sought-after family orientated area, Contemporary Ivory fitted kitchen and Pearl Black stone countertops., Bright crema marfil tiled floor hall and Kitchen / Dining room., GFCH Gas fired central heating with underfloor heating throughout the ground floor. Radiators on the first and second floors.",2006.0,7485.549132947976,High,0
"Sradrinagh House, Ballinaglera, Dorrusawillin, Co. Leitrim, N41RW28",495000,4,3,0,285.0,5,54.116124,-8.006488,21904.0,dorrusawillin-leitrim,24,"Triple Glazing throughout,  Underfloor Heating , Panoramic Views , Fully Furnished (optional) , Energy Efficient Home with B3 Energy Rating , Heated towel rails in bathrooms together with his/her sinks , Gated Entrance Detached Garage, Detached Garage",2006.0,1736.842105263158,Medium-High,1
"8 Monalee Manor, Knocknacarra, Knocknacarra, Co. Galway, H91VP63",625000,5,4,0,164.0,5,53.265649,-9.117602,10377.0,knocknacarra-galway,3,"Impressive 5/6 Bedroom Detached Residence , Situated in the Prized Location of Ballymoneen Road, Close to All Amenities, Beatifully Maintained, Upgarded Insulation, B3 BER, I Bedroom Apartment to the Rear With Full Planning Permission",1989.0,3810.9756097560976,Medium-High,1
"24 Grange Hall, Mountmellick, Mountmellick, Co. Laois, R32AV66",420000,5,4,4,204.0,5,53.114859,-7.317659,9060.0,mountmellick-laois,19,"An extensive and unique five bed, two kitchens, four bath, two living rooms., Grange Hall is an exceptional enclave to reside in., A great sense of community prevails., Schools literally around the corner., Town centre, yet a very quiet area, very private., Ample private parking to accommodate several vechiles.",2006.0,2058.823529411765,Medium,2
"Gortbrackmoor, Ahascragh, Ahascragh, Co. Galway, H53PX20",599000,6,4,0,330.0,3,53.377472,-8.280095,15414.0,ahascragh-galway,3,"Large site with separate field to the back, Large detached garage, Underfloor heating to 1st and 2nd floors, Paved patio area, Bar area to the rear of the house, Hollow core, Large main living room, Gaggenav Oven, Superb decor throughout ",2004.0,1815.1515151515152,Medium-High,1
"Crosscool House On c. 1.1 Acres, Edmondstown, Blessington, Co. Wicklow, W91C9C5",595000,4,2,0,176.0,14,53.185976,-6.520688,9826.0,blessington-wicklow,4,Unknown,1940.0,3380.681818181818,Medium-High,1
"Greyfort, Ballydonarea, Greystones, Co. Wicklow, A63HK81",1490000,5,4,0,350.0,2,53.107263,-6.049531,12229.0,greystones-wicklow,4,"Large Two Storey Stone Fronted Residence., A3 Ber Rating (10581088)., Features Marble Fireplace, Vaulted Ceiling, Panelled Walls & Ornate Carved Oak Staircase., Walled Gardens with enclosed Courtyard with Coach House., Landscaped Gardens., 13 Stables, Stores & Feed House. , Two Paddocks.",2014.0,4257.142857142857,High,0
"Kilcorral, Castlebridge, Co. Wexford, Y35AX21",695000,5,4,0,350.0,3,52.404347,-6.453113,12961.0,castlebridge-wexford,2,"Fabulous Family Home, Large site, Lovely views, Energy efficient, Fibre Broadband",2007.0,1985.7142857142858,High,0
"Tearmann, Tara Hill, Gorey, Co. Wexford, Y25H290",1200000,7,3,0,548.0,6,52.694563,-6.226402,26799.0,gorey-wexford,2,"Magnificent family home designed to maximize the exceptional views of Tara Hill and the Irish Sea, Spacious and light-filled reception rooms, including a dining room, drawing room, and games room, Large contemporary kitchen with high-end appliances and a welcoming living area, Seven expansive double bedrooms, two with ensuite bathrooms, Beautifully maintained gardens on approx. 0.59 Ha (1.47 acres), Secure property with an electric gate entrance and a security alarm system, Large garage with ample storage space, Direct access to scenic walking trails on Tara Hill",1985.0,2189.78102189781,High,0
"The Square, Claremorris, Co Mayo, F12C6X8",450000,4,2,0,143.0,12,53.719378,-8.997119,11388.0,claremorris-mayo,6,Unknown,1900.0,3146.853146853147,Medium,2
"Bofeenaun, 2 Brookfield, Rochestown Road, Cork City, Co. Cork, T12Y28P",750000,4,3,0,188.0,8,51.875932,-8.410353,18284.0,cork-city,1,"Mature site of 0.3 acres, C3 Energy Rating, Oil fired central heating, Private cul de sac setting, Convenient sought after location, Host of amenities and facilities on the doorstep, Plenty of development potential to increase the overall size, Detached garage, Covered useable patio",1981.0,3989.3617021276596,High,0
"11 The Ferns, Foxwood, Rochestown, Co. Cork, T12C2PC",350000,2,3,4,88.0,6,51.868354,-8.403102,14656.0,rochestown-cork,1,"Ideal home for a first time buyer, investor or a trade down, Facing a large green area, Parking to the front, Gas Central Heating, Spacious garden to the rear, Bus route to the city at entrance to the park, Side access, 2 Ensuites, Modern Kitchen",2008.0,3977.2727272727275,Medium,2
"Tobercrossaun, Headford, Co. Galway, H91F1PX",700000,4,2,0,297.0,2,53.46627,-9.130417,12458.0,headford-galway,3,"Magnificent detached residence of exceptional quality, A-Rated, complete with triple glazing and solar panels, Large enclosed and extensively landscaped mature grounds of 0.36 Hec (0.88 Acres), 4 bedrooms with large office/studio, in all extending to 297 sq. m (3196 sq.ft), Ideally positioned 1.7 kms to Headford and 28 kms to Galway city centre",2008.0,2356.902356902357,High,0
"Glenshee House, Brownstown, Balheary",975000,6,6,0,337.0,4,53.4964076,-6.2444338,19411.0,swords-dublin,0,"Detached Home, B2 Rating, Approx. 1.2 acres, 337.3 sq m living space, 5/6 bedrooms, Beautifully appointed, Double Garage, Stunning location",2006.0,2893.1750741839764,High,0
"Moorepark, Garristown, Co. Meath, A42FK71",595000,5,3,0,244.0,5,53.589638,-6.427344,13790.0,garristown-meath,10,"Impressive 5 Bed Bungalow Residence , Stunning Site with Panoramic Views of Open Countryside, Loving Maintained and Handsomely Upgraded , B3 BER, Mature Gardens, Fully Converted Attic Space, Collection of Outbuildings, Just Over 30 Minutes Drive to Dublin City ",1985.0,2438.5245901639346,Medium-High,1
"28 Slaney Woods, Park, Wexford Town, Co. Wexford, Y35T2N4",895000,4,4,0,262.0,5,52.350327,-6.49387,9104.0,wexford-town-wexford,2,"Prestigious Location., Stunning interior., Detached block built garage., Spacious entrance., Private landscaped gardens.",2008.0,3416.030534351145,High,0
"12 Wolfe Tone Street, Mountmellick, Co. Laois, R32XY36",230000,3,1,3,102.0,13,53.118515,-7.33404,10693.0,mountmellick-laois,19,"A lovely area to reside in., Town central., Shops across the street, schools around the corner. Gym across the road., Ample private parking., Great side, rear garden and shed access., Extensively double glazed., Oil fired central heating., Lovely Garden., M7 Fifteen Minutes.",1930.0,2254.901960784314,Low,4
"14 Haddington Place, Ballsbridge, Dublin 4, D04K3V1",1595000,4,4,0,290.0,7,53.334779,-6.240565,10679.0,ballsbridge-dublin,0,Unknown,2001.0,5500.0,High,0
"Dun Gealain, 23 Woodbine Avenue, Booterstown, Co. Dublin, A94CR97",995000,5,5,4,197.0,11,53.309654,-6.211572,9211.0,booterstown-dublin,0,"Superb setting within a stroll of the sea front  , Prime residential location, Gas fired central heating, Sunny rear garden , Semi-detached in a quiet location , Walking distance of premier schools , Close to the Quick Bus Corridor giving swift access to the city , Walking distance of UCD, Blackrock Clinic and the DART,  Stroll to Blackrock centre",1955.0,5050.761421319797,High,0
"Quilla, Kilmolin, Enniskerry, Enniskerry, Co. Wicklow, A98X963",895000,3,3,0,185.0,7,53.195251,-6.192234,13122.0,enniskerry-wicklow,4,"Detached residence , Set on 0.4 acre of gardens, west facing to rear, Triple glazed French doors and most windows (2021), LED lighting in most rooms, New bathrooms (2019), Stylish window shutters, Flat roofs and balcony replaced/re-surfaced in 2019, Stunning, picturesque location, Bus service to Enniskerry Village, Bray and City Centre, Within minutes of a range of local amenities and attractions ",1978.0,4837.8378378378375,High,0
"Apartment 99, Forbes Quay Apartments, Grand Canal Dock, Dublin 2, D02X654",475000,2,2,8,65.0,7,53.345489,-6.239353,17295.0,grand-canal-dock-dublin,0,"Modern 2 Bedroom Apartment, Owner Occupied- No Rent Restrictions, Excellent Riverside Location, Close to Coffee Shops, Restaurants and Hotels , Adjacent Grand Canal Plaza and Bord Gais Theatre, Close to the Luas and Dart, Walking Distance of St Stephens Green, Gas Fired Central Heating, Dual Aspect with Balconies from Bedrooms and Living room, Large Storage Room",2005.0,7307.692307692308,Medium-High,1
"Beaumont Lodge, Beaumont Avenue, Churchtown, Dublin 14, D14DY86",1400000,3,2,0,168.0,2,53.29249,-6.257393,22389.0,churchtown-dublin,0,"168 sq. mÂ² (1,808 sq. ft.)  Excluding   independent office / playroom of 15 sq. m (161 sq.m.) approx.",1888.0,8333.333333333334,High,0
"Rathdown Manor, Ballycorus Road, Rathmichael, Co. Dublin, D18T104",2690000,7,6,0,910.0,5,53.234797,-6.166122,12882.0,rathmichael-dublin,0,"Unique Seven bedroom residence of approximately 490sqm (5,274 sqft) plus approximately 420sqm (4,520 sqft) of very valuable non residential space. , Ornate cornicing with eye catching attractive detail. , B3 energy rating qualifying for a green mortgage. , Seven Bedrooms, Three Jacuzzi Baths, Six power showers. , Cast iron decorative balustrades and two Adams style Fireplaces. , Double glazed windows throughout with diamond cut glass. , Polished American Oak timber throughout. , Electricity and water tap points generously situated throughout the entire grounds. , Centralised vacuuming system throughout. ,  Kerosene Oil fired central heating.",2007.0,2956.043956043956,High,0
"Bramley Hill, Old Carrickbrack Road, Howth, Co. Dublin, D13PH31",3950000,5,4,0,387.0,6,53.367725,-6.075962,18899.0,howth-dublin,0,"Panoramic sea views across Dublin Bay, 5 bedrooms, Secluded location on Danesfort Avenue, South-facing aspect, Exquisite landscaped gardens and grounds, About 1 acre",1999.0,10206.71834625323,High,0
"Beacon Lodge Skidoo Ballyboughal, Ballyboughal, Co. Dublin, A41HH67",1275000,5,4,0,410.0,5,53.499053,-6.269373,10898.0,ballyboughal-dublin,0,Unknown,2008.0,3109.756097560976,High,0
"93 Butterfield Avenue, Rathfarnham, Rathfarnham, Dublin 14, D14P039",850000,4,2,4,161.0,13,53.296645,-6.295897,9891.0,rathfarnham-dublin,0,"Spacious, well-proportioned family home., Generous front and rear gardens, with side access to the rear garden., Potential to extend if required (subject to P.P.) , Large attic ideal for conversion should one desire., Excellent location close to a range of amenities and schools., OFCH/ALARM",1970.0,5279.503105590062,High,0
"20 Hampton Crescent, Saint Helen's Wood, Booterstown, Co. Dublin, A94EP95",795000,3,2,3,86.0,9,53.30306,-6.201821,9604.0,booterstown-dublin,0,"Quiet Cul-de-Sac Development, 3 Bedroom End of Terrace House, Viessmann Gas Fired Central Heating,  Alarm, Double Glazed Windows, Gated Side Entrance,   Designated Car Parking , Pedestrian Access via a Pleasant Wooded Path from St Helens Wood to St Helens Radisson Hotel,  Adjacent St Andrews College, Blackrock College and Willow Park Junior School, Close to DART and Bus Routes",1991.0,9244.186046511628,High,0
"Glounatouig House, Raffeen Bridge, Carrigaline, Co. Cork, T12X6FD",700000,5,4,0,280.0,6,51.833393,-8.370918,21086.0,carrigaline-cork,1,Unknown,1999.0,2500.0,High,0
"8 Cl Aitinn, Clybaun Road, Keeraun, Co. Galway, H91E1RH",765000,4,4,0,242.0,5,53.273956,-9.110329,21007.0,keeraun-galway,3,"Superior Detached Residence , Exclusive Development , Wonderful Location, Spacious Home, Beautifully Finished, Attic Conversion, South Facing Garden, Turnkey Condition",2006.0,3161.1570247933882,High,0
"Ard Na Mara, Ballymacaw, Dunmore East, Co. Waterford, X91F38K",949000,4,4,0,255.0,5,52.143294,-7.0486,18767.0,dunmore-east-waterford,14,"Elevated south facing coastal site c. 1.53 hectares commanding sweeping panoramic sea views, Upgraded to a high standard in 2023, uPVC treble glazed windows, Oil fired central heating with Ember smart heating app, Two reception rooms with sea views, Newly fitted bespoke kitchen with AEG applainces, Study / home office, Four double bedrooms , Bathroom, shower room and two ensuite shower rooms, Handmade temperature regulated Hartley Botanic Victorian Glasshouse ",1992.0,3721.5686274509803,High,0
"The Grange  , Drumollard, Virginia, Co. Cavan",1600000,5,5,0,837.0,8,53.8344096,-7.0813222,32324.0,virginia-cavan,20,"Totally restored fine country period house. , .Intricate ceiling roses with decorative cornicing complimented by chandeliers and typical floor to ceiling height , Moulded skirtings and architraves, High mantle marble Victorian style fireplaces., And solid wood floors to 3 main reception rooms., And solid wood floors to 3 main reception rooms. Original staircase., Double glazed sash windows., Indoor swimming pool / ballroom., 3 bay carport with gym over., 2 bedroom mews house.",1900.0,1911.5890083632019,High,0
"Careystown, Whitegate, Co. Cork, P25TR94",600000,4,4,0,275.0,8,51.833989,-8.219216,19385.0,whitegate-cork,1,"Fantastic 4/5 Bedroom Detached Home, Approx. 274 sq m / 2950 sq ft, Approx. 2 acres / 0.8 Hectares, Beautifully renovated and extended 2004, Automated private gates / long driveway, OFCH / Alarm / CCTV / Broadband, Landscaped garden with mature trees, Courtyard to rear with selection of stone buildings, Whitegate 1.3km / Midleton 12km / Cork 29km, All amenities, school, shops, sports clubs closeby",1900.0,2181.818181818182,Medium-High,1
"The Old Mill Stores, Millside, Connonagh, Leap, Co. Cork, P81RV10",495000,4,2,0,216.0,10,51.594544,-9.097318,19468.0,leap-cork,1,Unknown,1920.0,2291.6666666666665,Medium-High,1
"11 West Avenue, Carrig Na Curra, Carrigaline, Co. Cork, P43W303",625000,5,4,0,158.0,4,51.827137,-8.398629,16809.0,carrigaline-cork,1,"Fantastic Location on the Cork side of Carrigaline, Very Spacious Detached house, Large detached block & brick built garage to the rear, Large conservatory at the rear with doors to patio and garden, Spacious paved driveway with car access to the side, Newly fitted kitchen with new modern applicances, Cul de sac location, Mature, private and walled in garden, 2 Ensuites and large separate shower room, Dressing room that could be a 5th bedroom",2002.0,3955.6962025316457,Medium-High,1
"7 Ashwood Hall, Back Road, Malahide, Co. Dublin, K36WP76",1890000,5,4,0,260.0,1,53.43925,-6.161354,27843.0,malahide-dublin,0,"Fully furnished stunning five-bedroom detached show home on corner site in one of Malahide’s most sought-after family friendly estates., On Malahide prestigious Back Road just a stones throw from Malahide Castle and Demesne., Fully landscaped west facing rear garden with firepit, large granite patio and mature border planting., Opposite large green area, ideal for children to safely play., Higher than average 9-foot ceilings to ground floor., Planning permission in place for full attic conversion (plans available on request)., Covered porch / boot area off utility room., Air to water heat pump with underfloor heating to ground level | Heat recovery ventilation system., Just c. 15 minutes’ walk to Malahide bustling village and Dart Station | Within easy reach of local primary and secondary schools., c. 10 minutes’ drive from M1/M50 motorways | c. 15 minutes’ drive from Dublin International Airport.",2021.0,7269.2307692307695,High,0
"10 The Oaks, Frenchpark, Co. Roscommon, F45DT26",195000,3,3,3,128.0,7,53.872645,-8.40422,14882.0,frenchpark-roscommon,16,"Exceptional Value For Money, Turnkey Family Home, Fully Upgraded, New Kitchen, New Floors, New Boiler, Freshly Painted  Inside and Out, Not Overlooked to Front, Facing on to Large Green, 2 Minute Walk to the Village",2004.0,1523.4375,Low,4
"Coolsnaghtig, Dunmanway, Co. Cork, P47H966",420000,4,4,0,276.0,4,51.752257,-9.152905,25671.0,dunmanway-cork,1,"Located  just 5 miles northwest of Dunmanway and within a 45-minute drive of Cork City, B Energy Rated - allowing you to benefit from green mortgage rates, Four bedroom property on 0.74 of an acre, large attic space (approximately 600 sq. ft), ,  The residence enjoys breathtaking views of the surrounding picturesque rural landscape,  South-facing raised patio area, This property is chain-free, allowing for a swift and hassle-free sale., Finished to a very high standard",2008.0,1521.7391304347825,Medium,2
"10A Carrowmore Meadows, Knock, Co. Mayo, F12T8X8",185000,2,2,8,102.0,4,53.801254,-8.925151,15434.0,knock-mayo,6,"Prime location In a sought after area , Showhouse property in pristine condition throughout , Walking distance of church, schools, post office and shops, Waking distance of Knock Shrine , 10 min drive to Knock Airport ",2007.0,1813.7254901960785,Low,4
"Knockahone, Barntown, Co. Wexford, Y35AX04",895000,5,4,0,285.0,6,52.347741,-6.535004,28239.0,barntown-wexford,2,"Show house condition., Superb setting., Very accessible to the N25., Rosslare Europort (ferries) 25 mins., Heritage Park & scenic Ferrycarrig short distance., c. 285m2",2006.0,3140.3508771929824,High,0
"c.6 acres of lands with Residence at Garyroe, Kiltimagh, Co. Mayo",175000,3,1,0,107.0,14,53.86170315763695,-8.990696973537524,43165.0,kiltimagh-mayo,6,"Prime location In a sought after area , 20 Mins drive to Airport , 5 mins walk to Kiltimagh town and all amenities , 10mins drive Knock village , Residence on c.6 acres , Option to buy further c.8.7 acres ",1900.0,1635.5140186915887,Low,4
"1 Monte Vella, Bradda, Dalkey, Co. Dublin, A96RX71",1500000,3,2,3,168.0,3,53.27793,-6.109297,32388.0,dalkey-dublin,0,"Luxury Spacious Home with Architect Designed Interiors, Modern & Fully Fitted to the Highest Standards throughout this lovely House, Private Landscaped Patio Garden , Light & Bright Living Rooms, Light Filled Dining Room overlooking the Patio Garden , Unique Inner Courtyard, Comfortable Bedrooms, Utility/Laundry/Storage Room, B1 Energy Rating/Double Glazing throughout/Solar Panels, Off Road Private Parking",1890.0,8928.57142857143,High,0
"Hazy View, Moorepark, Garristown, Co. Meath, A42E970",450000,2,1,0,84.0,8,53.588025,-6.426771,23563.0,garristown-meath,10,"Handsomely Upgraded Bungalow, Most Attractive Interiors, Panoramic View of Open Court Site , Large Elevated Site of in Excess of One Acre, Complete with Orchard and Outbuilding , Re Insulated and Re Wired, Turnkey Condition, Unique Property, Just  30 Minutes Drive From Dublin City",1977.0,5357.142857142857,Medium,2
"FoggyHill 3 North Shore Greystones, Greystones, Co. Wicklow, A63N722",2200000,5,4,0,396.0,5,53.159151,-6.080397,31774.0,greystones-wicklow,4,Unknown,2004.0,5555.555555555556,High,0
"30 Sandycove Road, Sandycove, Sandycove, Co. Dublin, A96V9P1",1750000,6,2,4,393.0,13,53.285736,-6.116,17361.0,sandycove-dublin,0,Prime Commercial and Residential Property for Sale,1830.0,4452.926208651399,High,0
"Caherlissakill, Monivea, Co. Galway, H65VW08",375000,5,4,0,189.0,6,53.392148,-8.74241,21010.0,monivea-galway,3,"Spacious Family Residence, Handsomely Upgraded, Modern Interiors, 5 Bedrooms 4 Bathrooms, Large Garage, 5 Mins to Monivea, 7 Mins Abbeyknockmoy, 10 Mins to Motorway, 30 Mins to Galway City, Turnkey Condition",2005.0,1984.126984126984,Medium,2
"Kippanagh, Clonbern, Clonbern, Co. Galway, H53PY26",425000,5,5,0,285.0,7,53.561615,-8.647784,0.0,clonbern-galway,3,"Substantial 5 Bedroom Residence , Located in the Heart of Clonbern Village, Superior Site, Wonderful Location, 45 Minutes to Galway City",2003.0,1491.2280701754387,Medium,2
"West View, 13 Kenley Drive, Model Farm Road, Co. Cork, T12HCH6",595000,4,3,0,149.0,7,51.88647,-8.522424,0.0,model-farm-road-cork,1,"Spacious Detached Property, Large corner site with mature gardens, Paved driveway with parking for 3 - 4 cars, PVC Double Glazed Windows, Prime Location - close to all amenities, Ensuite in Master Bedroom, Facing a large Green Area, C2 Energy Rating, Close to CUH , Concrete Shed",1978.0,3993.288590604027,Medium-High,1
"Kilbride, Swinford, Co Mayo, F12XN26",194000,5,2,0,121.0,14,53.934765,-8.914204,58353.0,swinford-mayo,6,"Oil-Fired Central Heating, Double glazed windows throughout, Quiet and very central location",1935.0,1603.3057851239669,Low,4
"31 Ardsallagh Woods, Roscommon Town, Co. Roscommon, F42Y586",325000,5,4,0,186.0,7,53.622194,-8.172145,16388.0,roscommon-town-roscommon,16,"Prime location In a sought after area , Walking distance of all amenities of Roscommon Town , Mins walk to Roscommon County Hospital, Golf course and Hannons Hotel., 20 mins drive to Athlone town and 2 mins drive to Roscommon train station , Mains water and sewage connected , Oil fired central heating system installed, pvc windows and doors , Quality detached home ",2005.0,1747.3118279569892,Medium-Low,3
"Carrigaleigh House, Carrigaleigh House, Carriganore, Waterford City, Co. Waterford, X91X3E8",1850000,6,5,0,671.0,5,52.251694,-7.184812,31031.0,waterford-city,14,"FEATURES, Stunning Period Styled Residence on c. 4.65 Acres, Mature woodland setting with wonderfully mature landscaped gardens surrounding, Superior accommodation with six reception rooms and six bedrooms extending to c. 7,223 sq.ft., Traditionally designed and decorated, completed to a very high standard, Ideally located close to Waterford City and a host of local amenities, In excellent modern condition throughout, B3 Energy rating",1999.0,2757.0789865871834,High,0
"Stillpoint, Curraghgraigue, Enniscorthy, Co. Wexford, Y21ET38",750000,4,5,0,222.0,7,52.544319,-6.676694,24250.0,enniscorthy-wexford,2,"Spacious architect designed family home   , Spectacular countryside views , Presented in pristine condition, Superb location only 10 minutes from Enniscorthy and 1 hour from South Dublin  	, Serene country setting",2003.0,3378.3783783783783,High,0
"Arranmore 9 Killincarrig Road Greystones, Greystones, Co. Wicklow, A63YK02",1145000,4,2,5,205.0,11,53.143481,-6.062691,27791.0,greystones-wicklow,4,Unknown,1900.0,5585.365853658536,High,0
"Fairview Terrace, 1 Adelaide Villas, Bray, Co. Wicklow, A98A5D8",395000,2,2,4,76.0,11,53.206326,-6.113718,32986.0,bray-wicklow,4,"Brand new renovation, just completed, Fully fitted integrated modern kitchen with ample storage and counter top space, accommodating complete range of appliances, Hotpoint oven, hob and extractor fan, Indesit washing machine, Beko dryer and American style Hotpoint fridge/freezer, Gas-fired central heating, Tiled floors in kitchen and bathrooms, Newly fitted uPVC double glazed windows and front door , Property comes fully furnished , Ideally Located in the heart of Bray, only minutes from an array of amenities",1890.0,5197.368421052632,Medium,2
"Ballintim Lodge, Camolin, Co. Wexford, Y21X5R3",1250000,6,5,0,584.0,3,52.642278,-6.422494,29111.0,camolin-wexford,2,Unknown,1991.0,2140.4109589041095,High,0
"Wayside Cottage, Ballyrussell, Midleton, Co. Cork, P25FP60",345000,3,2,0,133.0,13,51.868485,-8.083917,34566.0,midleton-cork,1,Unknown,1900.0,2593.9849624060153,Medium-Low,3
"Larch Vale House, Larch Vale, Moneygall, Co. Offaly, E53F992",1195000,5,4,0,431.0,6,52.875708,-7.96603,27559.0,moneygall-offaly,21,"Family home originally built circa 1829 fully renovated to 21st century standards, Impeccably presented in turnkey condition, Arched gateway to inner courtyard with secret garden, Less than 1hr from Shannon Airport / 90 mins from Dublin Airport, Converted coach house, Extensive outbuildings ideal for business usage and/or extra accommodation (SPP)., Set well back from road - 300m long tree-lined driveway, Easy and safe walk to village - Primary school / GAA Club / Football Club / Gym / Playground, Electric car charger and high-speed broadband, New high-efficiency OFCH. Two wood burning stoves. Solar panels for hot water.",1820.0,2772.6218097447795,High,0
"Minaun Bungalow, Minaun, Faithlegg, Co. Waterford, X91K4C6",299000,4,1,0,100.0,11,52.268206,-7.005183,29421.0,faithlegg-waterford,14,"Pumped cavity wall insulation, Amazing views , Private well & septic tank",1986.0,2990.0,Medium-Low,3
"Downings View, The Downings, Prosperous, Co Kildare, W91E373",650000,4,5,0,215.0,7,53.288886,-6.758455,25004.0,prosperous-kildare,7,"Built C. 2004, Floor area 215 sq m / 2314 sq ft approx, Gas fired central heating, (Climote control system), Double glazed windows,, Alarm, CCTV cameras x 6, Electronic entrance gate,, 6 panel pine doors, Blinds and curtain poles,, Lightfittings expect in lounge, dining room, bedroom 4,, Attic partially floored,, Tarmac driveway and yard, Cobblelock patio,, Garden sheds x 3, greenhouse,",2004.0,3023.2558139534885,High,0
"78 Watson Drive, Killiney, Co. Dublin, A96N4F3",730000,5,2,4,134.0,9,53.259462,-6.132512,17184.0,killiney-dublin,0,"Off street parking to the front., Nicely appointed accommodation., East facing rear garden., Adjacent to Kilbogget Park & its amenities., Close to a selection of shops, restaurants, and schools., Excellent transport links nearby., Oil Fired Central heating., Solid fuel back boiler central heating, Double glazed throughout., Wired for both Virgin Media & Sky fibre broadband",1972.0,5447.761194029851,High,0
"Carraun, New Inn, Kiltullagh, Co. Galway, H53EW64",375000,3,2,0,149.0,5,53.291056,-8.547471,21144.0,kiltullagh-galway,3,"Beatifully Desined Bungalow, Stunning Open Plan Layout, Contemporary High Gloss Kitchen , Eye Catching Double Sided Stove, Elevated Site, Mature Gardens, Spacious Bedrooms, 25 Minutes Drive to Galway City, Highly Energy Efficient , B3 BER",2011.0,2516.778523489933,Medium,2
"Smear, Aughnacliffe, Co. Longford, N39DH31",495000,6,5,0,399.0,4,53.867584,-7.610481,22965.0,aughnacliffe-longford,26,Unknown,2005.0,1240.6015037593984,Medium-High,1
"267 Griffith Avenue, Drumcondra, Dublin 9, D09E2F6",1950000,4,4,4,238.0,4,53.37651,-6.252183,55909.0,drumcondra-dublin,0,"Spacious Four/Five-bedroom semi-detached home spanning approx. 238 sq. mtrs / 2,562 sq. ft of beautifully appointed accommodation, Renovated, extended and modernised in 2012, Four double Bedrooms, CCTV Cameras in operation, Bright contemporary accommodation, Underfloor zoned heating, GFCH - Combi Boiler, Excellent BER Rating B2, All integrated High quality Siemens appliances included in the sale - Oven, Steam Oven, Microwave Oven, Warming drawer, Built in Coffee Machine, Tumbl, Floors, Walls & Ceiling - Internally Insulated",1934.0,8193.27731092437,High,0
"129 Glenageary Avenue, Dun Laoghaire, A96 N9Y6, Glenageary, Co. Dublin, A96N9Y6",800000,5,2,4,159.0,8,53.276731,-6.135578,31107.0,glenageary-dublin,0,"Sought after location, Large back garden, 5 Bedrooms, Oil heating, Double Glazing, Off street parking, Close to public transport links, Close to all amenities, Large balcony, Internal Viewings Recommended",1963.0,5031.446540880504,High,0
"144 Dun Na Coiribe, Headford Road, Jordan's Island, Co. Galway, H91W9PF",450000,4,3,3,113.0,10,53.28439,-9.052948,36901.0,jordan-s-island-galway,3,"Superior 4 Bedroom Residence , Finished to and Exceptional Standard, New Fixtures and Fittings Throughout , Contemporary Bathrooms with New Tiling and Bathroom Furniture, Private Parking, Attractive Red Brick Faé§ade , Premium Build Quality , Walking Distance to Galway University and City Centre, High Speed Broadband Available.",1999.0,3982.3008849557523,Medium,2
"Hideaway, Reenogreena, Glandore, Co. Cork, P81F659",735000,4,3,0,330.0,6,51.549685,-9.082884,64685.0,glandore-cork,1,Unknown,1990.0,2227.2727272727275,High,0
"Ard Aoibhinn, 16 Taney Road, Dundrum, Dublin 14, D14A5R6",1795000,5,4,0,326.0,8,53.291563,-6.240098,48784.0,dundrum-dublin,0,Unknown,1936.0,5506.134969325153,High,0
"Cedarwood House, Stonestown, Cloghan, Birr, Co Offaly, R42YW62",499000,4,3,0,322.0,5,53.21151,-7.87308,22498.0,cloghan-offaly,21,"Prestigious property with excellent privacy., Spacious light filled rooms throughout the property., Power Chandeliers in the open plan sitting / dining room included., Roller blinds included., Modern design., Sauna, Large composite decking area 139 sq.m. with built in barbeque., Underfloor heating., Monitored alarm., CCTV security",2009.0,1549.6894409937888,Medium-High,1
"Manderlay, Crosstown, Wexford Town, Co. Wexford, Y35EK5H",1100000,7,6,0,587.0,4,52.358331,-6.46501,73529.0,wexford-town-wexford,2,Unknown,2001.0,1873.9352640545144,High,0
"46a Saint Judes Court, Lifford, Ballindrait, Co. Donegal, F93K77F",179950,3,3,0,125.0,6,54.8389423,-7.4974942,22633.0,ballindrait-donegal,5,"PVC double glazed windows, Large private site in quiet location, Close to all amenities, Private tarmac off-street driveway for 2-3 cars, Newly fenced and enclosed",2006.0,1439.6,Low,4
"6 Priory Grove, Kells, Co. Kilkenny, R95W974",440000,3,2,0,123.0,5,52.539204,-7.274759,2665.0,kells-kilkenny,15,"OIL FIRED HEATING SYSTEM WITH NEW CONDENSING BOILER, FULLY UPGRADED WITH NO EXPENSE SPARED TO ACHIEVE THE DESIRED FINISH, CONSISTENTLY MAINTAINED BY OWNERS, IDEAL FAMILY HOME, POTENTIAL TO EXTEND FURTHER TO THE REAR, CLOSE TO ALL OF KILKENNY CITY AMENITIES , PROFESSIONALLY DECORATED AND HIGH SPECIFICATION FINISH THROUGHOUT , CHILD CARE FACILITIES NEARBY AND SHORT DRIVE TO SCHOOLS , PRIVATE AND ENCLOSED REAR GARDEN/NOT OVERLOOKED, CLOSE TO MOTORWAY ACCESS",2000.0,3577.2357723577234,Medium,2
"Pergola Cottage, Little Sugarloaf, Kilmacanoge, Kilmacanogue, Co. Wicklow, A98H362",525000,2,2,0,89.0,6,53.170192,-6.129468,842.0,kilmacanogue-wicklow,4,"Charming two bedroom semi-detached cottage with stunning views and sun drenched patios, Renovated and extended to a high standard with BER C1, Perfectly located on the side of the Little Sugarloaf Mountain with the ideal south westerly orientation, Close to many amenities including Avoca Handweavers , Gas fired central heating, newly fitted combi boiler, Mains water, Septic Tank",1910.0,5898.876404494382,Medium-High,1
"2 Glenview, Gorey Road, Carnew, Co. Wicklow, Y14T209",300000,3,2,0,120.0,8,52.709899,-6.488672,33874.0,carnew-wicklow,4,"Detached bungalow            , 3 Bedrooms and 2 Bathrooms, Living space extends to 120sqm/ 1292sqft, Exceptionally well presented , Extensive Gardens, Driveway providing ample off-street parking, Oil fired central heating, Located in sought after boutique development, 15 minute drive to Gorey and the M11, Within walking distance of Carnew village centre",2005.0,2500.0,Medium-Low,3
"Apartment 22, East Courtyard, Tullyvale, Loughlinstown, Co. Dublin, D18A894",625000,3,2,8,145.0,9,53.247184,-6.145372,650.0,loughlinstown-dublin,0,"3 bedroom penthouse           , Recently renovated , Spanning approx. 145 square meters, In excellent condition, Designated parking, Close to N11/M50, Convenient for Cabinteely/Shankill Villages, LUAS at Cherrywood a 5 minute walk. ",2003.0,4310.3448275862065,Medium-High,1
"516 South Circular Road, Rialto, Dublin 8, D08FWV8",595000,4,2,3,110.0,13,53.335964,-6.296994,2647.0,rialto-dublin,0,"Superb investment opportunity, Original features, Superbly located close to the new Children`s Hospital, Gas fired central heating, Residents` car parking permit available, investment opportunity",1930.0,5409.090909090909,Medium-High,1
"Apartment 2 , The Stables, Distillery Lofts, Ballybough, Dublin 3, D03DR70",695000,3,2,8,154.0,3,53.364458,-6.246756,801.0,ballybough-dublin,0,"Stunning bright and spacious first floor 3 bed loft apartment, Approx. 169 sq m / 1819 ft , South-facing orientation with panoramic views, Quiet development on the banks of the Tolka River, Dual vehicular access from Richmond Road and Distillery Road",2000.0,4512.987012987013,High,0
"14 Coach Road Manor, Balrothery, K32E785",460000,4,3,4,137.0,7,53.589949,-6.185615,5966.0,balbriggan-dublin,0,"Spacious and modern layout, Excellent transport links, Large rear garden, Ample extra storage available, Parking available for two cars, Close to local amenities, Utility room for extra storage, Prime location, Beautiful quiet area",1997.0,3357.6642335766423,Medium-High,1
"Leeson Street Upper, Dublin 4, Ballsbridge, Dublin 4, D04A9C4",1495000,4,4,5,127.0,13,53.329645,-6.249599,5664.0,ballsbridge-dublin,0,"Georgian home divided into a main residence and separate basement apartment , Investment opportunity with the basement apartment, GFCH, restored original features, fireplaces, floors, cornicing.",1900.0,11771.653543307086,High,0
"1 Fernhill Court, Glebemount, Wicklow Town, Co. Wicklow, A67EP66",375000,3,2,2,97.0,7,52.983246,-6.054599,5842.0,wicklow-town-wicklow,4,"Three-bedroom townhouse in a cul de sac development., Small private west facing rear garden., Private off-street parking for two vehicles., Within walking distance of Wicklow Town Centre., Within close proximity to the N11 / M11 and only 60 mins from Dublin City Centre, Excellent public transport links to Dublin City Centre/Dublin Airpor, Within easy reach of Tesco, Costa Coffee, National Schools, Shops, Bars, Restaurants, Sports and Recreational Facilities in the locality.",2003.0,3865.979381443299,Medium,2
"22 Lios Caisil, Ballybrit, Ballybrit, Co. Galway, H91V5DD",360000,4,2,4,106.0,6,53.291517,-8.992602,1862.0,ballybrit-galway,3,"COMPLETE NEW MODERN KITCHEN, SHOWHOUSE CONDITION, SPACIOUS SUNNY REAR GARDEN, NEW FIREPLACE AND STOVE , TRIPLE GLAZING",1995.0,3396.2264150943397,Medium,2
"Cullencastle, Tramore, Co. Waterford, X91H4X0",695000,5,4,0,273.0,5,52.181986,-7.173579,4678.0,tramore-waterford,14,"Superb 5 bedroom detached home set on 0.67 acres minutes from Tramore town centre , Measuring c. 2,935 sq.ft,  Built in 1997, a farriers workshop was integrated into the property in 2008, Property is fully alarmed , Viewing is highly recommended",1997.0,2545.7875457875457,High,0
"26 Meadowbrook Lawns, Maynooth, Co. Kildare, W23N6C2",475000,4,3,4,124.0,6,53.374914,-6.597139,4553.0,maynooth-kildare,7,"GFCH, Built approx. 2006, Gas Fired Central Heating Close to all amenities, Within easy reach of rail station &amp; University Campus, UPVC double glazed windows &amp; doors, Not overlooked to rear, Flooring, blinds, light fittings &amp; kitchen appliances included in sale",2005.0,3830.6451612903224,Medium-High,1
"31 Elmfield Way, Clarehall, Dublin 13, D13P8N6",495000,3,2,4,109.0,5,53.40031,-6.170293,6944.0,clarehall-dublin,0,"B rating, Sunny south east facing rear garden, Solid fuel burning stove , UPVC double glazed windows & bifold patio door, Off street parking for 2, Utility room, Gas fired central heating, Seeded lawn, Full width property extension to the rear of property,  Master en-suite",1996.0,4541.284403669725,Medium-High,1
"120 Tolka Estate, Glasnevin, Dublin 9, D11A9W7",575000,4,0,3,126.0,11,53.381596,-6.279642,5415.0,glasnevin-dublin,0,"Spacious 4 bedroom home, Off Street Parking, Gas fired radiator central heating, Upvc double glazed windows, Walking distance to Botanic Gardens, Bon Secour Hospital and DCU, Easy access to M50 intersection, Dublin Airport and City Centre, No rent cap",1948.0,4563.492063492064,Medium-High,1
"17 Gleann Iris, Killeens, Killeens, Co. Cork, T23XT6T",550000,4,4,0,193.0,2,51.931806,-8.521199,4357.0,killeens-cork,1,"Year of Construction: c.2018, Quality turn key family home, A3 Energy Rating, Over 2,000 sq.ft of accommodation, 4 bedrooms, 4 bathrooms, Tranquil setting, Close to all local amenities, Top quality fixtures and fittings throughout",2017.0,2849.740932642487,Medium-High,1
"Burrane Lower, Killimer, Killimer, Co. Clare, V15K240",295000,6,3,0,218.0,7,52.617874,-9.380895,5723.0,killimer-clare,8,"Delightful six-bed detached residence , Beautiful views of the Shannon Estuary, Large 0.54 acre elevated site with potential to be finished to the owners own taste, The property is in excellent condition, Oil fired central heating ststem, Substantial basement underneath with multiple purposes and ideal for storage, Folio Number: CE14280F",1997.0,1353.211009174312,Medium-Low,3
"Kildoran, Ballinagaul, Glanmire, T45E923",695000,6,6,0,267.0,5,51.944267,-8.33979,7124.0,glanmire-cork,1,"Large plot of land ( 0.51 acre), Spacious layout, Sunroom, Large rear garden, Gated and secured, Ample extra storage available, Separate garage, Parking for multiple cars, Cork city center is just a short drive away, Beautiful quiet area",1990.0,2602.9962546816478,High,0
"19 Ard Na Mara Crescent, Malahide, Malahide, Co. Dublin, K36P402",1150000,4,3,0,205.0,12,53.448392,-6.174411,3223.0,malahide-dublin,0,"Four/Five bedroom, detached family home. , Beautiful mature residential location., Dual front driveway, garage, car port., Generous, private rear garden with mature planting., Adjacent to Malahide Castle and Demesne., Less than 15 minutes’ walk from Malahide Village and Dart Station., Ideally located with walking distance of local primary schools and a short drive from local secondary school., Four/Five bedroom, detached family home. , Beautiful mature residential location., Dual front driveway, garage, car port.",1973.0,5609.756097560976,High,0
"54 Dara Court, Celbridge, Co. Kildare, W23TA47",375000,3,2,4,87.0,10,53.341803,-6.54219,3196.0,celbridge-kildare,7,Unknown,1974.0,4310.3448275862065,Medium,2
"9 Brookes Mill, Prosperous, Co Kildare, W91X6Y6",390000,3,3,5,127.0,5,53.289399,-6.754757,2910.0,prosperous-kildare,7,"Blackout roller blind in 3 bedrooms, 3 panel internal doors, Alarm, Constructed C. 2009, Garden shed, Floor area 127.5 sq m / 1372 sq ft approx, Natural gas central heating, Patio area, Triple glazed windows to front, Outside tap",2009.0,3070.8661417322833,Medium,2
"Brackloon West, Bekan, Brackloon, Co. Mayo, F12RX80",235000,3,2,6,106.0,12,53.765936,-8.862296,2612.0,brackloon-mayo,6,"Eircode F12 RX80, Close to Bekan village, Knock Shrine, Ireland West Airport, Claremorris and Ballyhaunis, Large site 0.75 acres, Detached garage, Mature gardens, Spacious living and sleeping accommodation, countryside views, Only an hour from Galway, Sligo, Athlone or Westport, Viewing comes highly recommended, Exceptional value",1974.0,2216.9811320754716,Low,4
"31 Millmount Grove, Dundrum Road, Dundrum, Dublin 14, D14F224",475000,2,1,5,56.0,10,53.304205,-6.246349,12500.0,dundrum-dublin,0,"Presented in walk in condition, Luas close by, PVC Double Glazing Throughout, Off street parking, New gas boiler, Newly fitted kitchen and bathroom, Large private west facing terrace overlooking the river",1909.0,8482.142857142857,Medium-High,1
"22 Fernwood, Wilton, Wilton, Co. Cork, T12F836",350000,3,3,4,117.0,8,51.869466,-8.502104,4345.0,wilton-cork,1,"South facing at rear, Extended at rear, Built in 1996, C3 energy rating",1996.0,2991.4529914529912,Medium,2
"Mountdelvin, Cloonfad, Cloonfad, Co. Roscommon, F35YX37",160000,3,1,6,87.0,11,53.66669,-8.810181,3287.0,cloonfad-roscommon,16,"Eircode F35YX37, Countryside location with access to fishing , Open countryside views, Cloonfad Scenic Walks, Cafe, National School and bus service, Short drive to Cloonfad, Dunmore, Castlerea, Ireland West Airport and Knock Shrine, An hour from Galway, Sligo, Athlone or Westport, Spacious living and sleeping accommodation, Option to extend and purchase 3 additional acres of land , Option to purchase farm and farm buildings on 21 acres approximately, Viewing comes highly recommended, Exceptional value",1960.0,1839.0804597701149,Low,4
"Crainn Ard View, Lismullen, Garlow Cross, Tara, Co. Meath, C15C9H3",510000,4,2,6,116.0,7,53.604221,-6.605389,2628.0,tara-meath,10,"Large South Facing Garden, Landscaped Entrance, Separate Home Office, Great connectivity to M3 Motorway",1979.0,4396.551724137931,Medium-High,1
"The Poplars, Villa Nova, Douglas Road, Douglas, Co. Cork, T12YW5X",2250000,4,3,0,214.0,7,51.888276,-8.454687,8370.0,douglas-cork,1,"Exquisite detached home positioned on a private 1.62 acre site, Beautiful, private, and mature gardens surround the property, Approx. 214.06 Sq. M. / 2,304 Sq. Ft. / BER C2 / Built in 1995, Designed by Magee Creedon Architects / Features many original interiors / All internal doors are salvaged original pine doors, Gas fired central heating, Double glazed hardwood teak framed windows, Four spacious double bedrooms, Fully floored attic space, Sought after residential location with close proximity to Douglas Village, Cork city centre, Amenities within walking distance inc. St Finbarr’s Hospital, South Infirmary Hospital, Japanese Gardens, schools, bus routes, shops, bars, restaurant",1995.0,10514.018691588784,High,0
"Gortaclode, Kilmeadan, Co. Waterford, X91CX40",375000,4,3,0,178.0,9,52.247953,-7.254242,3772.0,kilmeadan-waterford,14,"Detached Dormer Bungalow: 4 bedrooms, 3 bathrooms, built in 1972, with 1,920 sq. ft. of space., Prime Location: Minutes from Waterford Greenway, Mount Congreve Gardens, and Comeragh Mountains., Upstairs Luxury: Two upstairs bedrooms include walk-in wardrobes and ensuites., Modern Comforts: PVC double-glazed windows, oil heating, and a composite front door., Outdoor Space: Expansive back garden, perfect for family gatherings and outdoor activities., Spacious Garage & Parking: Attached garage (6m x 3m) plus a large driveway with ample parking",1972.0,2106.741573033708,Medium,2
"28 Hazelwood Crescent, Hartstown, Hartstown, Dublin 15, D15W68V",375000,3,1,4,95.0,8,53.39301,-6.418103,4113.0,hartstown-dublin,0,"Gas Fired Central Heating , PVC Double Glazed Windows , Convenient location with a host of amenities on its doorstep, Excellent public transport links  , Timber garden shed, Pedestrian side access to rear garden ",1979.0,3947.3684210526317,Medium,2
"34 Ocean Wave, Salthill, Co. Galway, H91XPP2",490000,3,3,5,92.0,9,53.264939,-9.069828,4059.0,salthill-galway,3,Unknown,1995.0,5326.086956521739,Medium-High,1
"Silver Beach House, Barna Road, Barna, Co. Galway, H91VV19",870000,6,6,0,269.0,7,53.261499,-9.109747,16166.0,barna-galway,3,"Built 2001, Gated entrance, Pedestrian entrance, Garage with electricty, OFCH, Six bedrooms, Zoned heating (3 floors), Beam vacuum system, Patio area, Private",2002.0,3234.200743494424,High,0
"Killoughter, Ashford, Co. Wicklow, A67W822",650000,3,1,0,105.0,12,53.0262,-6.072111,4113.0,ashford-wicklow,4,"c. 18 Acres of high quality grazing and tillage lands., Detached 3-bed bungalow with substantial potential., Agricultural sheds and outbuildings., Hugely sought-after residential location with endless potential., Just 5 minutes from the Wicklow Coast-line., 5 minutes from Ashford village., 2km from the M11 roadway., Potential to seperate house and lands if required.",1972.0,6190.476190476191,High,0
"27 Ballyhooly Road, Montenotte, Co. Cork, T23KD40",175000,2,1,5,46.0,8,51.908923,-8.455006,7121.0,montenotte-cork,1,"Parking available for one car, Cosy and compact layout, Excellent transport links, Close Cork City Centre, Easy access to local amenities, Prime location",1900.0,3804.3478260869565,Low,4
"Nohoval Village, Kinsale, Co. Cork, P17DP44",565000,4,3,4,185.0,4,51.722334,-8.402611,7746.0,kinsale-cork,1,"Oil Fired Central Heating , Tastefully designed interior finish, Modern fitted kitchen with granite work-top & large centre island, Feature composite decking & patio area with steps to rear garden, Spacious private site, Rear access via attached garage, Minutes to all local beaches such as Oysterhaven, Nohoval Cove & Rocky Bay, Short drive to Kinsale Town Centre, Short commute to Cork City Centre, Cork Airport & Ringaskiddy.",1900.0,3054.054054054054,Medium-High,1
"Riverview House, Ballynamona, Hospital, Hospital, Co. Limerick, V35AR02",465000,5,3,0,201.0,7,52.498496,-8.452195,3940.0,hospital-limerick,12,Unknown,2004.0,2313.4328358208954,Medium-High,1
"5 Clashduv Villas, T12E3Y5",195000,3,1,3,57.0,12,51.885651,-8.498588,16944.0,glasheen-cork,1,"Windows, door and roof have all been replaced in the last year., Permit parking available, Excellent transport links, Prime location, Close to local amenities, Spacious layout",1960.0,3421.0526315789475,Low,4
"Key West, Corrigeenroe, Ballinafad, Co. Sligo, F52VP40",385000,3,2,0,240.0,4,54.026895,-8.281676,3105.0,corrigeenroe-roscommon,16,Unknown,2005.0,1604.1666666666667,Medium,2
"83 Woodfield, Station Road, Blarney, Co. Cork, T23KV44",445000,4,3,3,164.0,4,51.939928,-8.561603,2611.0,blarney-cork,1,"Year of Construction: 2005, Total Floor Area: 163.53m2 (1,760 sq.ft), Turn key condition, Excellent location, Gas heating, B2 Energy Rating",2005.0,2713.4146341463415,Medium,2
"27 Saint Doolagh's Square, Balgriffin, Balgriffin, Dublin 13, D13C5C9",495000,3,3,5,109.0,2,53.408427,-6.174473,2146.0,balgriffin-dublin,0,Unknown,2015.0,4541.284403669725,Medium-High,1
"121 Castlemoyne, Dublin 1, D13VY67",695000,5,4,4,174.0,4,53.40922,-6.166919,3506.0,dublin-1-dublin,0,Unknown,2007.0,3994.2528735632186,High,0
"Marian House, 16 College Road, Ennis, Co. Clare, V95W80K",1100000,5,4,0,358.0,2,52.847471,-8.983694,7544.0,ennis-clare,8,"One of the finest homes in the South West, Mechanical ventilation, Smart Home Integration, Fully landscaped garden both front and rear, Extensive rear lighting and electrical sockets",2006.0,3072.6256983240223,High,0
"The Lodge, Castle Road, Blackrock, Co. Cork, T12T6X6",1200000,4,2,0,211.0,7,51.899736,-8.40227,14044.0,blackrock-cork,1,"Property size Approx. 211 sq m / 2275 sq ft, Private landscaped garden Approx. 0.08 Ha / 0.2 acres, Minutes to Blackrock Village &amp; City Centre, Beautiful river views, Private gated gravel driveway, GFCH Combi (2023) / High Speed Broadband, Underflooring Heating Conservatory, Carport (suitable for extending house)",1983.0,5687.203791469195,High,0
"An Cuan, Prospecthill, Maree, Oranmore, Co. Galway, H91X4PH",795000,5,4,0,268.0,7,53.235301,-8.9634,5474.0,oranmore-galway,3,"Large landscaped 1.2 acre grounds, Fantastic water/bay views, 1km to Maree village &amp; school, 5mins to Galway Bay Sailing Club &amp; Galway Bay Golf Resort, Large detached garage, Pitch pine internal doors on ground floor, Oil central heating, Double glazed PVC windows, Hollow core first floor, Mains water",2000.0,2966.417910447761,High,0
"No.12 Forest Haven, Dunmore East, Co. Waterford, X91PC85",345000,3,2,4,107.0,5,52.154894,-6.998941,3796.0,dunmore-east-waterford,14,Unknown,2002.0,3224.299065420561,Medium-Low,3
"'Rosemullion', Strandhill Road, Sligo, Co. Sligo, F91C9V3",449000,4,3,6,170.0,9,54.271468,-8.509751,6253.0,sligo-sligo,17,"Oil fired & solid fuel central heating. Recently installed boiler., uPVC double glazed windows. , Large elevated site with south facing rear garden., Outbuildings include spacious carport to gable of residence, together with block built garden store (12.6 sq. m.) and green house. , Tarmacadam driveway with newly paved parking area., Upgraded insulation to attic and walls (pumped). Fully floored attic., Upgraded plumbing - new insulated water cylinder and pipework in Hot Press. High pressure pumped hot water system. , High speed broadband available in area. , Phone Watch security alarm fitted., Connected to all mains services.",1960.0,2641.176470588235,Medium,2
"Glenbeigh, Lee Road, Victoria Cross, Co. Cork, T23V99W",550000,5,3,5,175.0,12,51.895458,-8.506477,6094.0,victoria-cross-cork,1,Period house in superb location close to all amenities.,1907.0,3142.8571428571427,Medium-High,1
"12 Taney Green, Taney Road, D14KX58",1100000,5,2,4,182.0,1,53.293255,-6.242995,3665.0,dundrum-dublin,0,"Modern family home with all mod cons built in 2015, Presented in excellent condition, Superb A2 BER, Alarmed with CCTV, Excellent location close to all local amenties, Five-minute walk to Dundrum Luas, Excellent local schools and amenities, West facing back garden, Quiet cul-de-sac, Off-street parking for 2 cars",2015.0,6043.956043956044,High,0
"10 Kilbrody, Mount Oval Village, Rochestown, Co. Cork, T12YCW8",330000,2,2,5,72.0,8,51.866929,-8.407102,4977.0,rochestown-cork,1,"Built in 2002 approx, Turnkey condition, Two spacious bedrooms, Fully enclosed rear garden with patio area and Barna shed, Designated car space, Located in a quiet cul-de-sac a short walk to the Mount Oval Village shopping promenade, Highly sought after residential development, Easy access to N28 road network, BER C3",2002.0,4583.333333333333,Medium-Low,3
"7 Limeworth, Carriganarra, Ballincollig, Co. Cork, P31E190",1200000,6,6,0,299.0,4,51.882844,-8.582584,8991.0,ballincollig-cork,1,Unknown,2005.0,4013.3779264214045,High,0
"Knockduff House, Knockduff, Dunmanway, Co Cork, P47PF68",625000,4,3,0,318.0,6,51.745187,-9.087537,10046.0,dunmanway-cork,1,"Cork City and International Airport are an easy 45 minute commute, 2 miles from Dunmanway which has all amenities, Impressive 3,500 sq.ft. approx., 4 bed, 2 storey residence with attic conversion, 3.5 acres approx of paddocks, 3 loose box stables each 12 ft x 12ft with lighting and water connected, Feed room with w.c and a further tack room, 600 sq.ft. approx. large garage/workshop, Views of Yew Tree and Nowen Hills with the Shehy mountains in the distance",2001.0,1965.4088050314465,Medium-High,1
"Annaghmore, Blueball, Tullamore, Co. Offaly, R35F971",500000,4,4,0,246.0,4,53.194073,-7.570325,6592.0,tullamore-offaly,21,"Magnificent Five Bedroom Detached Family Home, Tripple Glazed Windows Throughout, Fitted Water Softener & Reverse Osmosis, Zoned Oil Fired Central Heating & Heat Recovery, Double Bay Detached Garage With First Floor Storage, Energy Efficient B2 BER Rating, Uninterrupted Views Of Surrounding Countryside & Sliabh Bloom Mountain Range, Pellet Stove With Back Boiler, Wrap Around Tarmac Drive, South Facing Rear Garden",2011.0,2032.520325203252,Medium-High,1
"Ross Road, Screggan, Tullamore, Co. Offaly, R35X015",700000,3,1,6,137.0,8,53.23963,-7.564069,11040.0,tullamore-offaly,21,"Spectacular Architecturally Designed Family Home, Set On 3.85 Acres Of Mature Parklands With Pond, Double Gate Entry With Matcrete Driveways, Light Filled Living Accommodation, Detached Shanette Shed Offering Some 54mÂ² Storage, Fitted Water Softener & Filtration System, Built c. 1984 & Extended & Refitted c. 1999/2000",1984.0,5109.489051094891,High,0
"97 Ballyroan Road, D16F9C9",895000,4,2,0,134.0,13,53.290062,-6.305111,7921.0,rathfarnham-dublin,0,"Converted Garage, Parking available, Excellent transport links, Spacious layout, Large rear garden",1950.0,6679.104477611941,High,0
"85 Feltham Hall, Blackbog Road, Carlow Town, Co. Carlow, R93D2V4",435000,5,4,4,170.0,5,52.828997,-6.926109,2603.0,carlow-town-carlow,22,"Sought After Estate, High Energy Efficiency, Close Local Amenities, Overlooking Communal Green Areas, Turn Key Condition, Ample Storage, GFCH",2007.0,2558.823529411765,Medium,2
"21 Dunmore Park, D24T28C",670000,4,3,0,134.0,7,53.311189,-6.365572,3956.0,tallaght-dublin,0,"Wheelchair accessible from front garden right through house to all rooms and bathrooms and shower room to back garden decking and ramp down to lawn an, 2 Very spacious double bedrooms and 2 very spacious queen size rooms., A fifth room that we use as laundry room and storage but can be used as a bedroom.., Very big sitting room with fire burner very big kitchen and dining room with a bespoke fireplace with burner., 2 side entrances one normal size and one very large with driveway to steel garage.enough space to park many cars., House is a beautiful red brick with thick granite sills walled in, front wall granite too. A lovely stoned garden area., House is very spacious with high ceilings and velux windows to throw in plenty of light even on the darkest days., This house is not over looked and back on to a Ballymount park with its wide range of birds and animals and Ballymount Castle., This house is a solid block house as is most or inside walls which keeps noise down and makes it fire resistant . House also has double glazed windows, Large driveway that could easily take 4 cars. thatÃ¢Â€Â™s not including the large side entrance.",1979.0,5000.0,High,0
"Apartment 10 The Fastnet, Lancaster Gate, Western Road, T12NX28",425000,2,2,8,67.0,5,51.89618,-8.483884,4223.0,cork-city,1,"Newly installed electric boiler, All appliances included, New intercom system being installed that rings directly to your phone., Furniture inclusions optional., Easy access to local amenities, Parking available, Spacious layout, Excellent transport links",2006.0,6343.2835820895525,Medium,2
"Apartment 73 The Stockyard, The Steelworks, Foley Street, D01H9T7",375000,2,2,8,64.0,5,53.35275,-6.25081,5057.0,dublin-1-dublin,0,"Best location for transport connections in Dublin - both Luas lines, BusAras, Connolly Railway Station and Dart all within a few minutes walk, Only ten minutes' walk to the Spire, No rent cap, Beautifully presented, Designated parking space, Gas central heating, serviced June 2024, Sunny south-facing balcony, Dishwasher included, Spacious layout",2004.0,5859.375,Medium,2
"20 Beechwood, Ennis, Co. Clare, V95Y7F2",270000,3,3,4,123.0,6,52.810289,-8.966987,11757.0,ennis-clare,8,"Ideally set just a short distance from Clarecastle village, Located 2km from the M18 Ennis bypass and only 4km from the motorway , Excellent condition with low maintenance back yard area, Bright and spacious open plan kitchen/dining/sunroom that also connects to the living room, Oil fired central heating",1999.0,2195.121951219512,Medium-Low,3
"6 South Park, Foxrock, Dublin 18, D18FK70",1000000,4,2,0,140.0,6,53.268321,-6.160097,4842.0,foxrock-dublin,0,"4 bedroom detached house, Set on large site of around 0.37 acre, Potential to further develop (subj.to pp), Prime address close to good schools, Next To Foxrock village and Cornelscourt",1955.0,7142.857142857143,High,0
"Airmont, Herbert Road, Bray, Co. Wicklow, A98KN79",1150000,4,3,0,144.0,5,53.200951,-6.119111,7887.0,bray-wicklow,4,"Manicured Grounds, Accessed Via Electric Gates, Energy Efficient B3 BER Rating, Solar Panels, CCTV System, Alarm System, Recessed Lighting Throughout, Interconnection Reception Rooms, Recently Remodelled Bathroom and Ensuites, Sumptuous Decor Throughout",1970.0,7986.111111111111,High,0
"21 North Avenue, Matthew Hill, Lehenaghmore, Co. Cork, T12CY8H",385000,3,3,4,98.0,6,51.866024,-8.490456,4313.0,lehenaghmore-cork,1,"Turnkey conditon house, Located in a mature housing estate close to Cork City , Kitchen  is open plan and has been extended.",2002.0,3928.5714285714284,Medium,2
"Ballyhillogue, Mourneabbey, Burnfort, Co. Cork, P51Y054",550000,4,4,0,258.0,6,52.051379,-8.61682,5542.0,burnfort-cork,1,"Price Region €550,000, Oil Fired Central Heating, Floor to ceiling glazing, Large corner windows, Spiral staircase, Many double height ceilings",2005.0,2131.782945736434,Medium-High,1
"Nohoval Cove, Kinsale, Co. Cork",745000,4,3,0,212.0,5,51.72238782780906,-8.40183901346029,6571.0,kinsale-cork,1,"Size: 212 sq metres (2,280 sq ft), Unique c. 0.6 acre elevated site, Fibre Optic Broadband - 1000 kb, PVC Double Glazed Windows & Doors , Oil Fired Central Heating , Extensive living and bedroom accommodation with well proportioned rooms, Breath-taking views of the sea from Ballycotton to The Old Head of Kinsale , Impeccable condition throughout, Ready for immediate occupation, Services: Private bored well water supply, private septic tank & soakway on site, mains water & electricity",1997.0,3514.1509433962265,High,0
"17 Beech Rise, Crann Ard, Fermoy, Co. Cork, P61CX89",250000,3,3,4,111.0,5,52.150353,-8.275082,3725.0,fermoy-cork,1,"Gas Fired Central Heating, All Main services, Within easy access to M8 Motorway, Built in 2005, Will appeal to 1st time buyers and investors alike",2005.0,2252.252252252252,Low,4
"Fear More, Tuam, Carrowntanlis, Co. Galway, H54CH63",375000,4,2,0,230.0,7,53.535623,-8.799548,8104.0,carrowntanlis-galway,3,"Most Private Location, Quiet Country Lane with Very Little Traffic, Five Minutes from Tuam Town , Large Elevated Site, Spacious Accommodation, Bock Built Shed",2005.0,1630.4347826086957,Medium,2
"36 Thorndale Avenue, Artane, Artane, Dublin 5, D05R2D0",555000,4,1,4,110.0,8,53.379398,-6.217469,3703.0,artane-dublin,0,"Mature cul-de-sac setting, Large utility/storage room, Retractable stairs to attic space, Double glazed windows, Gas fired central heating, Off-street parking, Good sized westerly facing rear garden - Potential to extend, Concrete garden shed, Within 1.5 km of Killester DART Station, Within 4 km of city centre",1974.0,5045.454545454545,Medium-High,1
"14 Grange Park Avenue, Grange Park, Waterford City, Co. Waterford, X91PF2D",445000,3,2,6,118.0,9,52.248836,-7.101188,3483.0,waterford-city,14,"Easy walking distance of an abundance of local amenities, Large corner site with mature gardens, Excellent potential to extend and convert, Highly coveted mature residential area, Southerly rear aspect with private patio area, New A1 rated Weatherglaze double-glazed windows, New highly efficient oil-fired central heating system",1945.0,3771.186440677966,Medium,2
"1 Gowrie, Glenageary Road Upper, Glenageary, Co. Dublin, A96V0HY",1300000,4,3,4,209.0,0,53.281681,-6.141255,6931.0,glenageary-dublin,0,"A1 Energy Rating with Air to Water heating , Two parking spaces , Large private garden, Home office , Four bedrooms - Two are ensuite, Solid timber and polished concrete flooring  ",2021.0,6220.095693779905,High,0
"5 Palmerston Place, Phibsborough, D07W2N1",675000,4,2,0,155.0,12,53.355029,-6.271069,7207.0,dublin-7-dublin,0,"Alarmed, GFCH, Two Car Garage with direct access from Western Way, Very close to LUAS at Broadstone, Excellent transport links",1890.0,4354.8387096774195,High,0
"Rosario, Naas Road, Kilcullen, Co. Kildare, R56X962",495000,4,2,0,148.0,10,53.135672,-6.739929,7240.0,kilcullen-kildare,7,"Substantial residence extending to 148.09 Sq.Metres / 1,595 Sq.Feet., Total Site Area approximately 0.20 hectares / 0.5 Acre., Oil Fired Central Heating., Prime Residential location on edge of Kilcullen town but in close proximity to shops and schools., Excellent transport links provided by M9/ M7 motorway access outside Kilcullen / daily bus services / excellent train commuter service from Newbridge , Spacious accommodation ideal for family living / Excellent storage options., Boot Room / Utility room area and Separate WC / washroom area to rear of Property. , Garage with front and rear access suitable for multiplicity of uses / Magnificent elevated site with a range of mature trees and an abundance of shrub, Private rear gardens (not overlooked) suitable for Summer entertaining or equally offering an oasis of tranquility with endless options., Outbuildings / Shed in rear garden / External tap / Separate Bin Area / 2 Side entrances.",1955.0,3344.5945945945946,Medium-High,1
"2 Station House, McCurtain Hill, Clonakilty, Co Cork, P85Y585",525000,3,3,4,141.0,7,51.625831,-8.887729,6748.0,clonakilty-cork,1,Unknown,2006.0,3723.404255319149,Medium-High,1
"56 Wilkins View, Limekiln",695000,4,4,4,166.0,2,53.3075612,-6.3308835,6184.0,walkinstown-dublin,0,"Spacious 4 bedroom home with bright & neutral interior, Gas fired central heating with modern, condensing boilers and thermostatically controlled radiators, Fitted kitchens to include quartz counter tops, under cabinet lighting & integrated appliances, A3 energy rating - qualifies for a Green Mortgage, South west facing rear garden, Utility room, Parking x 2, Located in a quiet cul-de-sac, Fitted wardrobes, Main bathroom, two ensuite bathrooms & guest wc downstairs",2017.0,4186.746987951808,High,0
"Apartment 261, Tí Bhriain, Gleann Na Rí, Renmore, Co. Galway, H91YH96",270000,3,2,8,105.0,6,53.272078,-9.005255,7807.0,renmore-galway,3,"Fantastic location with stunning views , Secure Complex, Within walking distance of ATU (formerly GMIT), Over 2 floors, Storage  Heating, Excellent Investment Opportunity , Large communal green area ",2001.0,2571.4285714285716,Medium-Low,3
"Moneyteige, Craughwell, Co. Galway, H91CDK7",430000,5,3,0,195.0,11,53.253075,-8.778279,6002.0,craughwell-galway,3,"Excellent Location, Spacious home, Fantastic potential, Under floor heating , Mature gardens, Sizable shed ",1977.0,2205.128205128205,Medium,2
"17 Amiens Square, Amiens Street, Dublin 1, D01YH95",345000,2,1,8,52.0,8,53.350782,-6.250501,7706.0,dublin-1-dublin,0,"3rd floor 2 bed apartment, Bright west-facing aspect, 1-minute walk from Connolly Luas & Train, Several bus routes outside the development, Walking distance from IFSC, Grand Canal Dock, and City, Mgt fee: €996 per annum",1992.0,6634.615384615385,Medium-Low,3
